~VERSION
 VERS.        2.0                                          :CWLS Log ASCII Standard - VERSION 2.0
 WRAP.        NO                                           :One Line per depth step
 PROD.        Schlumberger                                 :LAS Producer
 PROG.        DLIS to ASCII 2.2                            :LAS Program name and version
 CREA.        2006/03/10 09:49                          :LAS Creation date {YYYY/MM/DD hh  :mm}
SOURCE.       DSI_EMS_LDL_CNL_NGS_030PUP.DLIS              :DLIS File Name
FILE-ID.      DSI_EMS_LDL_CNL_NGS_030PUP                   :File Identification Number
#--------------------------------------------------
~WELL
#MNEM.UNIT      DATA             DESCRIPTION
#---- ------ --------------   -----------------------------
 STRT.M       2193.03600                                                                                     :START DEPTH
 STOP.M       3388.15680                                                                                     :STOP DEPTH
 STEP.M       0.15240                                                                                        :STEP
 NULL.        -999.25000                                                                                     :NULL VALUE
 COMP.        EXXONMOBIL CANADA PROPERTIES                                                                   :COMPANY
 WELL.        EXXONMOBIL ET AL ALMA 3                                                                        :WELL
  FLD.        ALMA                                                                                           :FIELD
  LOC.        Offshore Nova Scotia - Sable Island                                                            :LOCATION
 PROV.        NOVA SCOTIA                                                                                    :PROVINCE
 CTRY.        CANADA                                                                                         :COUNTRY
  UWI.        303N764340060300                                                                               :UNIQUE WELL ID
 DATE.        04-Mar-2006                                                                                    :LOG DATE {DD-MMM-YYYY}
 SRVC.        Schlumberger                                                                                   :SERVICE COMPANY
 LATI.DEG     43 35' 47.74" N                                                                                :LATITUDE
 LONG.DEG     60 41' 22.69" W                                                                                :LONGITUDE
#-----------------------------------------------------------------------------
~PARAMETER
#MNEM.UNIT    VALUE                                        :DESCRIPTION
#----.----    ---------------                              :-------------------
  RUN.        ONE                                          :RUN NUMBER
 PDAT.        LLWLT                                        :PERMANENT DATUM
  EPD.M       0.000000                                     :ELEVATION OF PERMANENT DATUM ABOVE MEAN SEA LEVEL
  EPD.M       0.000000                                     :ELEVATION OF TOOL ZERO ABOVE MEAN SEA LEVEL
  LMF.        ROTARY TABLE                                 :LOGGING MEASURED FROM (NAME OF LOGGING ELEVATION REFERENCE)
  APD.M       56.700001                                    :ELEVATION OF DEPTH REFERENCE (LMF) ABOVE PERMANENT DATUM
~CURVE
#MNEM.UNIT    VALUE                                        :DESCRIPTION
#----.----    ---------------                              :-------------------
 DEPT.M       00 001 00 00                                 :Depth Index
   BS.MM                                                   :BIT SIZE {F13.4}
 CALI.MM                                                   :CALIPER {F13.4}
 CHR1.                                                     :LABEL PEAK COHERENCE, RECEIVER ARRAY - LOWER DIPOLE {F13.4}
 CHR2.                                                     :LABEL PEAK COHERENCE, RECEIVER ARRAY - UPPER DIPOLE {F13.4}
 CHRP.                                                     :LABEL PEAK COHERENCE, RECEIVER ARRAY, COMPRESSIONAL - MONOPOLE P&S {F13.4}
 CHRS.                                                     :LABEL PEAK COHERENCE, RECEIVER ARRAY, SHEAR - MONOPOLE P&S {F13.4}
 DRHO.K/M3                                                 :BULK DENSITY CORRECTION {F13.4}
 DT1R.US/M                                                 :DELTA-T SHEAR, RECEIVER ARRAY - LOWER DIPOLE {F13.4}
  DT2.US/M                                                 :DELTA-T SHEAR - UPPER DIPOLE {F13.4}
 DT2R.US/M                                                 :DELTA-T SHEAR, RECEIVER ARRAY - UPPER DIPOLE {F13.4}
 DT4P.US/M                                                 :DELTA-T COMPRESSIONAL - MONOPOLE P&S {F13.4}
 DT4S.US/M                                                 :DELTA-T SHEAR - MONOPOLE P&S {F13.4}
   GR.GAPI                                                 :GAMMA RAY {F13.4}
  HD1.MM                                                   :HOLE DIAMETER 1 {F13.4}
  HD2.MM                                                   :HOLE DIAMETER 2 {F13.4}
  HD3.MM                                                   :HOLE DIAMETER 3 {F13.4}
 NPOR.V/V                                                  :ENHANCED THERMAL NEUTRON POROSITY {F13.4}
  PEF.                                                     :PHOTOELECTRIC FACTOR {F13.4}
 RHOB.K/M3                                                 :BULK DENSITY {F13.4}
 SPR1.                                                     :STC SLOWNESS PROJECTION, RECEIVER ARRAY - LOWER DIPOLE {AF13.4}
 TENS.LBF                                                  :CABLE TENSION {F13.4}
 VPVS.                                                     :COMPRESSIONAL TO SHEAR VELOSITY RATIO {F13.4}
~A         DEPT             BS           CALI           CHR1           CHR2           CHRP           CHRS           DRHO           DT1R            DT2           DT2R           DT4P           DT4S             GR            HD1            HD2            HD3           NPOR            PEF           RHOB           SPR1           TENS           VPVS
# ...
     2986.73520      311.10000      313.33580        0.96570        0.94570        0.96390        0.73330        4.41370      601.85730      599.85770      634.03200      301.90180      577.62020       83.27170      321.14610      309.30880      305.69910        0.43580        4.28530     2549.57250       54.62650     6938.00000        1.98690
     2986.88760      311.10000      313.73470        0.95080        0.92230        0.95920        0.73800        3.51970      612.47210      539.99820      572.03200      302.40530      579.46580       84.81370      321.82150      309.17230      306.60820        0.40010        4.13800     2542.20210       58.74900     6971.00000        1.78570
     2987.04000      311.10000      313.67540        0.93720        0.89970        0.90020        0.67460        6.89140      599.30780      529.80880      561.23820      301.47610      577.43230       84.24290      321.16770      309.15530      305.82510        0.39360        4.25860     2538.38060       69.06300     6952.00000        1.75740
     2987.19240      311.10000      313.76690        0.94040        0.90850        0.80250        0.49420       -2.10500      525.52730      498.28060      528.23130      295.77370      566.78500       80.44700      321.82730      309.53120      305.69450        0.41880        4.23240     2570.76150       71.51520     6864.00000        1.68470
     2987.34480      311.10000      312.60660        0.94270        0.91040        0.70990        0.40740       -0.55990      517.43080      493.23070      522.87780      277.85500      528.63480       72.49940      322.56020      309.78170      305.69910        0.44240        4.58040     2697.96630       78.02320     6876.00000        1.77510
     2987.49720      311.10000      313.97230        0.93660        0.92650        0.74300        0.47900       13.04230      500.42510      498.63890      528.61120      262.83690      505.41220       67.49510      321.34680      309.68110      305.51310        0.42220        6.38220     2912.92580       73.75590     6841.00000        1.89710
     2987.64960      311.10000      314.91960        0.94470        0.94990        0.80010        0.59130       25.21100      518.75110      477.28710      505.01230      250.36740      477.09530       63.58060      321.19840      309.97940      304.21880        0.34320        8.39730     3040.27490       65.95310     6816.00000        1.90630
     2987.80200      311.10000      313.37160        0.93890        0.95780        0.78710        0.61310       -1.97870      513.20650      474.59720      500.99980      229.61080      458.39060       58.59860      320.46410      309.83230      304.04250        0.30520        8.86410     2988.81760       85.26360     6883.00000        2.06700
     2987.95440      311.10000      311.30120        0.94270        0.94700        0.76050        0.59050       -5.74580      515.03090      474.54130      500.94090      228.59350      444.37740       54.56550      317.93300      309.88060      304.69740        0.32310        8.52510     2941.02710       79.84250     6864.00000        2.07590
     2988.10680      311.10000      311.76680        0.94540        0.94700        0.76300        0.53020       -1.63880      515.13630      476.73910      503.26100      229.65760      441.66270       52.07440      317.80050      309.88590      305.22100        0.33090        8.69010     2955.77540       81.97590     6898.00000        2.07590
     2988.25920      311.10000      311.80080        0.94960        0.95220        0.70970        0.50780        5.09750      525.15660      493.62360      523.29440      238.92500      451.93620       51.54060      317.99250      308.93250      304.77700        0.29420        8.94230     2920.56960       78.21010     6921.00000        2.06600
     2988.41160      311.10000      311.47850        0.95060        0.95440        0.68550        0.45940        1.60840      538.87630      504.00730      534.30220      253.35130      475.91160       57.70890      317.92320      310.11300      304.04250        0.27630        6.83790     2790.14600       81.30560     6843.00000        1.98940
     2988.56400      311.10000      311.24100        0.95670        0.95770        0.72540        0.55900        0.43820      555.73940      521.15730      552.07340      257.38850      491.20740       65.77510      318.61300      310.01510      304.38400        0.30660        5.52050     2659.39920       70.39820     6949.00000        2.02480
     2988.71640      311.10000      311.73720        0.96240        0.95920        0.78550        0.60900        0.10510      563.35370      529.22340      560.61800      270.14090      502.42770       70.57930      318.81850      310.22050      305.22100        0.35640        4.46320     2579.37550       67.37770     6951.00000        1.95910
     2988.86880      311.10000      311.88570        0.95360        0.95950        0.94770        0.76260        5.04480      574.30110      532.88010      564.49160      275.90340      518.23790       69.15580      316.65500      311.11260      305.22100        0.35130        4.07920     2562.75000       72.28920     6842.00000        1.93140
     2989.02120      311.10000      311.67350        0.96740        0.96030        0.94720        0.70830        5.33750      577.66200      532.68640      564.28640      281.09820      526.57930       67.73240      317.47710      310.76850      305.30070        0.40210        4.12700     2571.20830       67.72200     6896.00000        1.89500
     2989.17360      311.10000      311.53790        0.95790        0.95240        0.94240        0.76810        3.78320      571.98000      531.15170      562.66070      282.57780      528.11600       69.98620      317.32650      310.27130      305.82430        0.36150        4.08380     2577.15090       61.74590     6853.00000        1.87970
     2989.32600      311.10000      311.48260        0.96120        0.95720        0.94160        0.79050        1.40120      567.50340      528.66440      560.02580      281.35390      526.02100       71.72100      317.12550      310.18790      305.22100        0.35550        4.32250     2593.63820       60.20520     6873.00000        1.87900
     2989.47840      311.10000      311.53790        0.96450        0.97340        0.93090        0.76620        0.63160      571.20090      530.11570      561.56320      282.39210      524.48410       72.90720      316.61090      310.92890      305.30070        0.36390        4.33430     2598.69870       66.75150     6913.00000        1.87720
     2989.63080      311.10000      312.45650        0.96600        0.97440        0.91550        0.74970        3.69600      574.91540      530.79990      562.28810      282.99990      525.80110       67.92510      316.43810      309.71960      305.60870        0.36960        4.15580     2608.76120       61.61320     6913.00000        1.87560
     2989.78320      311.10000      310.93980        0.96630        0.97510        0.93760        0.74310        3.43350      574.18380      531.81340      563.36160      280.84940      524.02400       67.49510      317.76390      309.71960      305.76890        0.34280        4.33270     2615.36010       57.93860     6975.00000        1.89360
     2989.93560      311.10000      311.47850        0.96750        0.97370        0.94200        0.77020        0.33020      589.42420      538.95070      570.92240      284.52900      529.32970       63.58060      318.78000      309.80270      307.15600        0.36620        4.26670     2605.66060       51.51610     6993.00000        1.89420
     2990.08800      311.10000      311.79170        0.96750        0.97270        0.93390        0.73110        2.25870      596.49770      545.59500      577.28810      284.98390      533.92940       69.03720      319.14050      309.86180      307.56610        0.38890        4.66460     2607.54150       52.06510     6888.00000        1.91450
     2990.24040      311.10000      311.35970        0.97900        0.97300        0.92880        0.70390       -3.82520      597.84400      552.36500      584.45130      289.56520      541.05870       67.13180      318.29690      310.18790      308.12000        0.37960        4.41270     2584.59160       45.74600     6934.00000        1.90760
