~VERSION
 VERS.        2.0                                          :CWLS Log ASCII Standard - VERSION 2.0
 WRAP.        NO                                           :One Line per depth step
 PROD.        Schlumberger                                 :LAS Producer
 PROG.        DLIS to ASCII 2.2                            :LAS Program name and version
 CREA.        2006/03/10 09:49                          :LAS Creation date {YYYY/MM/DD hh  :mm}
SOURCE.       DSI_EMS_LDL_CNL_NGS_030PUP.DLIS              :DLIS File Name
FILE-ID.      DSI_EMS_LDL_CNL_NGS_030PUP                   :File Identification Number
#--------------------------------------------------
~WELL
#MNEM.UNIT      DATA             DESCRIPTION
#---- ------ --------------   -----------------------------
 STRT.M       2193.03600                                                                                     :START DEPTH
 STOP.M       3388.15680                                                                                     :STOP DEPTH
 STEP.M       0.15240                                                                                        :STEP
 NULL.        -999.25000                                                                                     :NULL VALUE
 COMP.        EXXONMOBIL CANADA PROPERTIES                                                                   :COMPANY
 WELL.        EXXONMOBIL ET AL ALMA 3                                                                        :WELL
  FLD.        ALMA                                                                                           :FIELD
  LOC.        Offshore Nova Scotia - Sable Island                                                            :LOCATION
 PROV.        NOVA SCOTIA                                                                                    :PROVINCE
 CTRY.        CANADA                                                                                         :COUNTRY
  UWI.        303N764340060300                                                                               :UNIQUE WELL ID
 DATE.        04-Mar-2006                                                                                    :LOG DATE {DD-MMM-YYYY}
 SRVC.        Schlumberger                                                                                   :SERVICE COMPANY
 LATI.DEG     43 35' 47.74" N                                                                                :LATITUDE
 LONG.DEG     60 41' 22.69" W                                                                                :LONGITUDE
#-----------------------------------------------------------------------------
~PARAMETER
#MNEM.UNIT    VALUE                                        :DESCRIPTION
#----.----    ---------------                              :-------------------
  RUN.        ONE                                          :RUN NUMBER
 PDAT.        LLWLT                                        :PERMANENT DATUM
  EPD.M       0.000000                                     :ELEVATION OF PERMANENT DATUM ABOVE MEAN SEA LEVEL
  EPD.M       0.000000                                     :ELEVATION OF TOOL ZERO ABOVE MEAN SEA LEVEL
  LMF.        ROTARY TABLE                                 :LOGGING MEASURED FROM (NAME OF LOGGING ELEVATION REFERENCE)
  APD.M       56.700001                                    :ELEVATION OF DEPTH REFERENCE (LMF) ABOVE PERMANENT DATUM
~CURVE
#MNEM.UNIT    VALUE                                        :DESCRIPTION
#----.----    ---------------                              :-------------------
 DEPT.M       00 001 00 00                                 :Depth Index
   BS.MM                                                   :BIT SIZE {F13.4}
 CALI.MM                                                   :CALIPER {F13.4}
 CHR1.                                                     :LABEL PEAK COHERENCE, RECEIVER ARRAY - LOWER DIPOLE {F13.4}
 CHR2.                                                     :LABEL PEAK COHERENCE, RECEIVER ARRAY - UPPER DIPOLE {F13.4}
 CHRP.                                                     :LABEL PEAK COHERENCE, RECEIVER ARRAY, COMPRESSIONAL - MONOPOLE P&S {F13.4}
 CHRS.                                                     :LABEL PEAK COHERENCE, RECEIVER ARRAY, SHEAR - MONOPOLE P&S {F13.4}
 DRHO.K/M3                                                 :BULK DENSITY CORRECTION {F13.4}
 DT1R.US/M                                                 :DELTA-T SHEAR, RECEIVER ARRAY - LOWER DIPOLE {F13.4}
  DT2.US/M                                                 :DELTA-T SHEAR - UPPER DIPOLE {F13.4}
 DT2R.US/M                                                 :DELTA-T SHEAR, RECEIVER ARRAY - UPPER DIPOLE {F13.4}
 DT4P.US/M                                                 :DELTA-T COMPRESSIONAL - MONOPOLE P&S {F13.4}
 DT4S.US/M                                                 :DELTA-T SHEAR - MONOPOLE P&S {F13.4}
   GR.GAPI                                                 :GAMMA RAY {F13.4}
  HD1.MM                                                   :HOLE DIAMETER 1 {F13.4}
  HD2.MM                                                   :HOLE DIAMETER 2 {F13.4}
  HD3.MM                                                   :HOLE DIAMETER 3 {F13.4}
 NPOR.V/V                                                  :ENHANCED THERMAL NEUTRON POROSITY {F13.4}
  PEF.                                                     :PHOTOELECTRIC FACTOR {F13.4}
 RHOB.K/M3                                                 :BULK DENSITY {F13.4}
 SPR1.                                                     :STC SLOWNESS PROJECTION, RECEIVER ARRAY - LOWER DIPOLE {AF13.4}
 TENS.LBF                                                  :CABLE TENSION {F13.4}
 VPVS.                                                     :COMPRESSIONAL TO SHEAR VELOSITY RATIO {F13.4}
~A         DEPT             BS           CALI           CHR1           CHR2           CHRP           CHRS           DRHO           DT1R            DT2           DT2R           DT4P           DT4S             GR            HD1            HD2            HD3           NPOR            PEF           RHOB           SPR1           TENS           VPVS
# ...
     2430.78000      311.10000      312.84410        0.95710        0.94800        0.92970        0.67530        6.88580      560.90780      538.44640      570.38810      296.13350      549.67990       89.85490      321.16270      305.04820      298.67180        0.38870        4.32510     2541.64310       57.86590     6148.00000        1.81830
     2430.93240      311.10000      313.02610        0.95670        0.94790        0.93710        0.69000       -2.16600      558.98950      533.83110      565.49900      290.92920      539.16110       84.62810      318.45040      301.30220      298.22610        0.39780        4.21130     2539.97070       57.90090     6171.00000        1.83490
     2431.08480      311.10000      313.24570        0.95660        0.94970        0.93930        0.73160       -7.96830      557.31600      531.57990      563.11430      286.66710      528.38430       81.95920      317.35030      302.82570      299.49420        0.36690        4.07830     2534.34200       67.54010     6150.00000        1.85430
     2431.23720      311.10000      313.36470        0.95670        0.94870        0.94250        0.75410       -8.75650      555.66400      530.96650      562.46450      283.99630      524.03480       77.28850      318.56620      301.35670      298.56830        0.34980        4.00240     2525.74120       64.25570     6081.00000        1.86960
     2431.38960      311.10000      312.76170        0.97280        0.95630        0.94590        0.75740       -6.78310      541.26070      527.44220      558.73110      282.36900      516.14540       81.24740      319.86100      300.43710      298.35850        0.32430        3.91640     2520.36570       68.44870     5951.00000        1.86790
     2431.54200      311.10000      314.07860        0.97550        0.95640        0.97070        0.79290       -6.02640      538.93180      527.64180      558.94270      281.33830      511.17450       80.13540      319.92470      300.09280      297.77330        0.34780        3.85870     2523.73970       58.48760     5975.00000        1.87550
     2431.69440      311.10000      313.79410        0.97530        0.95800        0.97640        0.77590       -4.70850      532.29380      526.73720      557.98430      280.89310      508.10510       79.57930      319.81450      300.66350      296.79870        0.34080        4.07090     2530.44900       72.77210     5960.00000        1.87520
     2431.84680      311.10000      314.08420        0.97130        0.97120        0.97000        0.82140       -5.21610      524.57360      528.29280      559.63220      278.98480      506.07130       75.50920      318.83410      302.55800      297.65280        0.31490        4.22920     2537.37300       44.52480     6017.00000        1.89360
     2431.99920      311.10000      314.43560        0.97850        0.97420        0.95080        0.74890       -4.69270      520.12210      524.07990      556.70260      280.26140      506.11490       73.06260      321.87130      300.74340      297.03410        0.29900        4.29220     2539.42330       64.84750     6046.00000        1.87000
     2432.15160      311.10000      314.50670        0.97890        0.97480        0.94180        0.75220       -7.42770      517.38060      524.20070      556.83100      279.32260      508.98800       69.50400      322.28570      298.76970      292.39090        0.30890        4.10240     2539.69460       77.16060     6088.00000        1.87670
     2432.30400      311.10000      314.75250        0.97630        0.96330        0.92670        0.61300       -7.87580      516.59810      525.71350      558.43790      276.63080      514.83180       71.28330      318.35680      298.51990      291.79140        0.28040        4.02820     2538.49220       71.74550     5986.00000        1.90040
     2432.45640      311.10000      316.27190        0.96410        0.96420        0.91720        0.65700       -7.10980      561.28750      528.78740      561.70320      277.35540      511.85520       72.39540      321.43880      298.54300      292.87140        0.28970        4.02600     2537.29740       57.78890     6035.00000        1.90650
     2432.60880      311.10000      314.81450        0.96740        0.96250        0.88540        0.61280       -6.19570      563.54390      533.43040      566.63530      277.76930      516.96540       73.28500      320.56320      298.37290      294.35500        0.33090        3.99920     2528.66970       73.06100     6007.00000        1.92040
     2432.76120      311.10000      315.47650        0.96890        0.96240        0.90740        0.48630       -7.13530      594.63760      547.53240      580.81300      281.51290      526.50930       70.94970      320.69810      296.23780      294.68590        0.33120        4.18450     2526.18040       85.02890     6167.00000        1.94500
     2432.91360      311.10000      315.39730        0.97360        0.96490        0.90850        0.32630       -3.84120      597.54410      553.62840      587.27950      283.37050      541.54110       71.39450      319.68440      297.29160      293.47380        0.33190        4.32250     2530.50120       62.73250     6092.00000        1.95370
     2433.06600      311.10000      315.42080        0.97660        0.96660        0.90210        0.33810        1.21930      602.12050      559.65170      593.66890      285.46550      541.83810       75.43500      317.89210      295.67030      291.75870        0.32740        4.60830     2538.74320       72.42540     6063.00000        1.96050
     2433.21840      311.10000      316.15270        0.97780        0.96600        0.89540        0.44960        8.35560      605.00350      561.72490      595.86810      285.45070      547.12740       85.77730      319.85780      298.42540      293.60260        0.32370        4.44800     2536.02440       81.18890     6229.00000        1.96790
     2433.37080      311.10000      315.46630        0.97800        0.96390        0.90460        0.43460       10.40740      605.77130      563.06990      597.29490      288.93440      546.29740       92.11610      319.76850      302.44190      295.51610        0.32020        4.45440     2537.02910       77.76080     6112.00000        1.94880
     2433.52320      311.10000      316.40660        0.97740        0.96190        0.92670        0.47500       13.56330      608.56440      564.91780      599.25510      291.86790      545.17150       96.74970      324.25700      301.72980      298.16330        0.36520        4.37030     2530.19530       71.05710     6109.00000        1.93550
     2433.67560      311.10000      317.64360        0.97430        0.97150        0.94470        0.34480       21.83750      596.56640      575.37480      609.50720      294.78110      556.14970       96.56000      326.15900      302.12840      299.11810        0.36490        4.54840     2539.64970       54.57860     6079.00000        1.95190
     2433.82800      311.10000      317.59420        0.97510        0.95600        0.95650        0.00000       18.15770      597.22960      546.02390      579.21280      295.47680      560.69540       99.71830      324.45100      304.21580      297.09810        0.36980        4.54050     2525.21460       57.51290     6116.00000        1.84790
     2433.98040      311.10000      317.71290        0.97300        0.97030        0.95740        0.00000       14.12930      612.62320      561.67270      595.81270      292.09270      560.31900       97.42220      323.18250      304.01040      299.49420        0.39960        4.66500     2531.65890       49.46870     6141.00000        1.92290
     2434.13280      311.10000      318.25740        0.97640        0.97180        0.94490        0.00000       14.65110      616.73680      564.56290      598.87870      290.99520      555.62790       91.89580      324.77830      301.06630      300.99720        0.40160        4.60380     2529.86570       42.46420     6232.00000        1.94010
     2434.28520      311.10000      317.89110        0.97710        0.97300        0.93690        0.00000       12.81290      620.06940      566.29240      600.71330      291.27670      555.28010       82.95480      324.51590      302.32720      299.41110        0.36570        4.38660     2519.48630       44.47240     6173.00000        1.94420
