~VERSION
 VERS.        2.0                                          :CWLS Log ASCII Standard - VERSION 2.0
 WRAP.        NO                                           :One Line per depth step
 PROD.        Schlumberger                                 :LAS Producer
 PROG.        DLIS to ASCII 2.2                            :LAS Program name and version
 CREA.        2006/03/10 09:49                          :LAS Creation date {YYYY/MM/DD hh  :mm}
SOURCE.       DSI_EMS_LDL_CNL_NGS_030PUP.DLIS              :DLIS File Name
FILE-ID.      DSI_EMS_LDL_CNL_NGS_030PUP                   :File Identification Number
#--------------------------------------------------
~WELL
#MNEM.UNIT      DATA             DESCRIPTION
#---- ------ --------------   -----------------------------
 STRT.M       2193.03600                                                                                     :START DEPTH
 STOP.M       3388.15680                                                                                     :STOP DEPTH
 STEP.M       0.15240                                                                                        :STEP
 NULL.        -999.25000                                                                                     :NULL VALUE
 COMP.        EXXONMOBIL CANADA PROPERTIES                                                                   :COMPANY
 WELL.        EXXONMOBIL ET AL ALMA 3                                                                        :WELL
  FLD.        ALMA                                                                                           :FIELD
  LOC.        Offshore Nova Scotia - Sable Island                                                            :LOCATION
 PROV.        NOVA SCOTIA                                                                                    :PROVINCE
 CTRY.        CANADA                                                                                         :COUNTRY
  UWI.        303N764340060300                                                                               :UNIQUE WELL ID
 DATE.        04-Mar-2006                                                                                    :LOG DATE {DD-MMM-YYYY}
 SRVC.        Schlumberger                                                                                   :SERVICE COMPANY
 LATI.DEG     43 35' 47.74" N                                                                                :LATITUDE
 LONG.DEG     60 41' 22.69" W                                                                                :LONGITUDE
#-----------------------------------------------------------------------------
~PARAMETER
#MNEM.UNIT    VALUE                                        :DESCRIPTION
#----.----    ---------------                              :-------------------
  RUN.        ONE                                          :RUN NUMBER
 PDAT.        LLWLT                                        :PERMANENT DATUM
  EPD.M       0.000000                                     :ELEVATION OF PERMANENT DATUM ABOVE MEAN SEA LEVEL
  EPD.M       0.000000                                     :ELEVATION OF TOOL ZERO ABOVE MEAN SEA LEVEL
  LMF.        ROTARY TABLE                                 :LOGGING MEASURED FROM (NAME OF LOGGING ELEVATION REFERENCE)
  APD.M       56.700001                                    :ELEVATION OF DEPTH REFERENCE (LMF) ABOVE PERMANENT DATUM
~CURVE
#MNEM.UNIT    VALUE                                        :DESCRIPTION
#----.----    ---------------                              :-------------------
 DEPT.M       00 001 00 00                                 :Depth Index
   BS.MM                                                   :BIT SIZE {F13.4}
 CALI.MM                                                   :CALIPER {F13.4}
 CHR1.                                                     :LABEL PEAK COHERENCE, RECEIVER ARRAY - LOWER DIPOLE {F13.4}
 CHR2.                                                     :LABEL PEAK COHERENCE, RECEIVER ARRAY - UPPER DIPOLE {F13.4}
 CHRP.                                                     :LABEL PEAK COHERENCE, RECEIVER ARRAY, COMPRESSIONAL - MONOPOLE P&S {F13.4}
 CHRS.                                                     :LABEL PEAK COHERENCE, RECEIVER ARRAY, SHEAR - MONOPOLE P&S {F13.4}
 DRHO.K/M3                                                 :BULK DENSITY CORRECTION {F13.4}
 DT1R.US/M                                                 :DELTA-T SHEAR, RECEIVER ARRAY - LOWER DIPOLE {F13.4}
  DT2.US/M                                                 :DELTA-T SHEAR - UPPER DIPOLE {F13.4}
 DT2R.US/M                                                 :DELTA-T SHEAR, RECEIVER ARRAY - UPPER DIPOLE {F13.4}
 DT4P.US/M                                                 :DELTA-T COMPRESSIONAL - MONOPOLE P&S {F13.4}
 DT4S.US/M                                                 :DELTA-T SHEAR - MONOPOLE P&S {F13.4}
   GR.GAPI                                                 :GAMMA RAY {F13.4}
  HD1.MM                                                   :HOLE DIAMETER 1 {F13.4}
  HD2.MM                                                   :HOLE DIAMETER 2 {F13.4}
  HD3.MM                                                   :HOLE DIAMETER 3 {F13.4}
 NPOR.V/V                                                  :ENHANCED THERMAL NEUTRON POROSITY {F13.4}
  PEF.                                                     :PHOTOELECTRIC FACTOR {F13.4}
 RHOB.K/M3                                                 :BULK DENSITY {F13.4}
 SPR1.                                                     :STC SLOWNESS PROJECTION, RECEIVER ARRAY - LOWER DIPOLE {AF13.4}
 TENS.LBF                                                  :CABLE TENSION {F13.4}
 VPVS.                                                     :COMPRESSIONAL TO SHEAR VELOSITY RATIO {F13.4}
~A         DEPT             BS           CALI           CHR1           CHR2           CHRP           CHRS           DRHO           DT1R            DT2           DT2R           DT4P           DT4S             GR            HD1            HD2            HD3           NPOR            PEF           RHOB           SPR1           TENS           VPVS
# ...
     3304.94640      311.10000      325.25860        0.97880        0.96790        0.86290        0.62750       -2.76550      413.12650      391.82210      408.87210      239.55710      411.22820       49.24240      332.65510      312.39620      315.83210        0.15120        3.65040     2548.96700       63.22230     7427.00000        1.63560
     3305.09880      311.10000      325.68010        0.98240        0.97230        0.90630        0.68670        1.68410      420.67290      407.87270      427.94320      245.73630      406.29870       45.57260      331.80560      313.07630      319.92450        0.20660        3.42030     2509.27320       57.14320     7367.00000        1.65980
     3305.25120      311.10000      325.97190        0.98950        0.98520        0.96040        0.76250        3.11450      436.16150      423.41900      446.64450      249.68370      433.51510       42.96290      332.85210      317.15950      317.02890        0.21290        3.31660     2494.12920       48.69460     7431.00000        1.69580
     3305.40360      311.10000      327.29350        0.99150        0.98640        0.97060        0.78940       10.96340      438.47670      427.07330      451.45170      250.89930      422.49100       42.40690      333.08100      318.73380      317.80330        0.22760        3.30480     2506.36350       47.05160     7340.00000        1.70220
     3305.55600      311.10000      326.79740        0.99270        0.98580        0.95460        0.83220        2.95360      439.40980      430.22130      453.81990      249.08440      427.30210       44.63840      333.47340      318.76950      320.65050        0.23560        3.28640     2485.41160       45.80000     7392.00000        1.72720
     3305.70840      311.10000      327.34590        0.99350        0.98390        0.95900        0.84310       -3.14690      438.69900      429.17960      453.67830      251.22540      431.18460       42.50330      333.35400      315.24460      321.29660        0.22360        3.28290     2471.92190       44.88180     7368.00000        1.70830
     3305.86080      311.10000      326.82190        0.98990        0.97720        0.92920        0.81220       -7.37110      437.29760      422.10050      445.25360      251.27460      414.92070       40.94640      334.17210      316.54500      321.58920        0.20250        3.20300     2465.51950       44.87550     7336.00000        1.67980
     3306.01320      311.10000      327.23390        0.99060        0.98100        0.81640        0.83160       -3.49150      434.20700      397.77430      418.09360      246.99390      425.93440       41.30220      334.05220      316.29320      321.20170        0.22020        3.11950     2471.58840       46.26630     7434.00000        1.61050
     3306.16560      311.10000      326.55990        0.99070        0.98300        0.81480        0.85270       -9.06610      429.56190      396.00360      415.49010      240.17510      421.19900       42.95550      334.22960      301.43380      320.95340        0.21380        3.03820     2465.32690       47.75570     7408.00000        1.64880
     3306.31800      311.10000      326.92950        0.99070        0.97470        0.82670        0.84740      -10.55680      407.98320      389.97010      406.93950      235.20630      429.45720       42.81470      334.00100      315.68890      319.92060        0.21150        3.17370     2473.71410       51.50770     7328.00000        1.65800
     3306.47040      311.10000      326.44730        0.99160        0.97440        0.86470        0.00000       -7.28670      400.51060      384.85960      401.60670      232.96860      416.40940       42.89620      333.29280      318.51430      319.20610        0.20500        3.34790     2486.18730       54.81370     7384.00000        1.65200
     3306.62280      311.10000      326.29320        0.98930        0.97600        0.85300        0.00000       -4.55370      397.75500      379.49880      396.01250      219.51800      376.28890       44.08980      333.18590      317.30850      320.67980        0.19960        3.54060     2494.21610       56.42480     7336.00000        1.72880
     3306.77520      311.10000      322.99190        0.99010        0.96950        0.85560        0.69370       -8.33630      389.27800      369.91170      386.00830      215.93250      361.13840       50.02090      332.15710      315.95620      322.18430        0.21450        3.65940     2497.51860       61.01730     7354.00000        1.71310
     3306.92760      311.10000      322.70540        0.97930        0.96770        0.70320        0.73670       -4.76240      383.72680      362.40810      378.17820      213.09900      366.23500       51.02170      332.64260      311.95840      320.65630        0.20180        3.68960     2531.34890       64.03790     7431.00000        1.70070
     3307.08000      311.10000      320.77580        0.98700        0.96820        0.69960        0.77990        2.17570      381.90800      362.79690      376.57970      207.53700      358.98580       49.36100      331.47340      312.22370      318.19990        0.19420        4.03720     2577.38920       66.21010     7393.00000        1.74810
     3307.23240      311.10000      319.25260        0.98800        0.95780        0.71520        0.78560        2.15550      371.64210      356.81470      369.90950      198.97000      344.47820       42.34760      328.61880      315.35810      313.96490        0.17840        3.90560     2595.46560       72.05330     7442.00000        1.79330
     3307.38480      311.10000      316.71070        0.98570        0.96480        0.65280        0.77460        1.93340      361.75140      345.46940      358.14780      203.50200      337.90510       39.13000      328.09990      317.00820      313.88490        0.14970        3.95480     2593.85080       73.93790     7480.00000        1.69760
     3307.53720      311.10000      316.93440        0.98570        0.95700        0.70870        0.75120        1.75050      359.05760      360.59820      373.83180      212.03500      339.72370       38.48500      325.51680      314.36130      314.59490        0.12950        3.83890     2579.99460       75.27940     7437.00000        1.70070
     3307.68960      311.10000      316.10140        0.98920        0.95750        0.76510        0.71020        4.85140      351.84060      359.54530      372.74030      214.18220      342.90310       40.04190      324.67750      313.56920      313.97760        0.11010        4.03570     2552.98360       76.31530     7514.00000        1.67870
     3307.84200      311.10000      313.67540        0.98920        0.96060        0.81730        0.69390        4.97360      355.52710      361.46850      374.26850      216.83230      351.70210       43.12600      324.64560      310.00780      311.97640        0.10800        3.90410     2517.64970       77.07780     7437.00000        1.66700
     3307.99440      311.10000      312.76970        0.98860        0.96350        0.84760        0.72070        8.54940      363.29230      362.11580      374.93870      217.83330      362.46710       44.79410      324.08860      308.32350      314.77920        0.11410        3.59520     2494.73290       77.32250     7435.00000        1.66240
     3308.14680      311.10000      312.41280        0.98770        0.96560        0.87030        0.76800        6.44640      364.90940      364.23510      377.13310      220.10150      361.30430       43.84520      321.23850      306.93650      313.73570        0.12760        3.14730     2473.90550       76.93550     7483.00000        1.65490
     3308.29920      311.10000      312.45650        0.98930        0.97880        0.88180        0.82090        6.91460      371.68500      373.60450      388.72600      216.75650      367.67910       42.64410      318.96870      311.19180      309.96260        0.15230        3.00870     2467.91720       74.74980     7415.00000        1.72360
     3308.45160      311.10000      311.31090        0.98910        0.98010        0.95240        0.85670        3.61800      370.99340      381.13850      396.56490      217.24650      367.84650       40.90930      317.86310      312.49010      308.96080        0.17390        2.93940     2454.11840       74.32600     7486.00000        1.75440
