~VERSION
 VERS.        2.0                                          :CWLS Log ASCII Standard - VERSION 2.0
 WRAP.        NO                                           :One Line per depth step
 PROD.        Schlumberger                                 :LAS Producer
 PROG.        DLIS to ASCII 2.2                            :LAS Program name and version
 CREA.        2006/03/10 09:49                          :LAS Creation date {YYYY/MM/DD hh  :mm}
SOURCE.       DSI_EMS_LDL_CNL_NGS_030PUP.DLIS              :DLIS File Name
FILE-ID.      DSI_EMS_LDL_CNL_NGS_030PUP                   :File Identification Number
#--------------------------------------------------
~WELL
#MNEM.UNIT      DATA             DESCRIPTION
#---- ------ --------------   -----------------------------
 STRT.M       2193.03600                                                                                     :START DEPTH
 STOP.M       3388.15680                                                                                     :STOP DEPTH
 STEP.M       0.15240                                                                                        :STEP
 NULL.        -999.25000                                                                                     :NULL VALUE
 COMP.        EXXONMOBIL CANADA PROPERTIES                                                                   :COMPANY
 WELL.        EXXONMOBIL ET AL ALMA 3                                                                        :WELL
  FLD.        ALMA                                                                                           :FIELD
  LOC.        Offshore Nova Scotia - Sable Island                                                            :LOCATION
 PROV.        NOVA SCOTIA                                                                                    :PROVINCE
 CTRY.        CANADA                                                                                         :COUNTRY
  UWI.        303N764340060300                                                                               :UNIQUE WELL ID
 DATE.        04-Mar-2006                                                                                    :LOG DATE {DD-MMM-YYYY}
 SRVC.        Schlumberger                                                                                   :SERVICE COMPANY
 LATI.DEG     43 35' 47.74" N                                                                                :LATITUDE
 LONG.DEG     60 41' 22.69" W                                                                                :LONGITUDE
#-----------------------------------------------------------------------------
~PARAMETER
#MNEM.UNIT    VALUE                                        :DESCRIPTION
#----.----    ---------------                              :-------------------
  RUN.        ONE                                          :RUN NUMBER
 PDAT.        LLWLT                                        :PERMANENT DATUM
  EPD.M       0.000000                                     :ELEVATION OF PERMANENT DATUM ABOVE MEAN SEA LEVEL
  EPD.M       0.000000                                     :ELEVATION OF TOOL ZERO ABOVE MEAN SEA LEVEL
  LMF.        ROTARY TABLE                                 :LOGGING MEASURED FROM (NAME OF LOGGING ELEVATION REFERENCE)
  APD.M       56.700001                                    :ELEVATION OF DEPTH REFERENCE (LMF) ABOVE PERMANENT DATUM
~CURVE
#MNEM.UNIT    VALUE                                        :DESCRIPTION
#----.----    ---------------                              :-------------------
 DEPT.M       00 001 00 00                                 :Depth Index
   BS.MM                                                   :BIT SIZE {F13.4}
 CALI.MM                                                   :CALIPER {F13.4}
 CHR1.                                                     :LABEL PEAK COHERENCE, RECEIVER ARRAY - LOWER DIPOLE {F13.4}
 CHR2.                                                     :LABEL PEAK COHERENCE, RECEIVER ARRAY - UPPER DIPOLE {F13.4}
 CHRP.                                                     :LABEL PEAK COHERENCE, RECEIVER ARRAY, COMPRESSIONAL - MONOPOLE P&S {F13.4}
 CHRS.                                                     :LABEL PEAK COHERENCE, RECEIVER ARRAY, SHEAR - MONOPOLE P&S {F13.4}
 DRHO.K/M3                                                 :BULK DENSITY CORRECTION {F13.4}
 DT1R.US/M                                                 :DELTA-T SHEAR, RECEIVER ARRAY - LOWER DIPOLE {F13.4}
  DT2.US/M                                                 :DELTA-T SHEAR - UPPER DIPOLE {F13.4}
 DT2R.US/M                                                 :DELTA-T SHEAR, RECEIVER ARRAY - UPPER DIPOLE {F13.4}
 DT4P.US/M                                                 :DELTA-T COMPRESSIONAL - MONOPOLE P&S {F13.4}
 DT4S.US/M                                                 :DELTA-T SHEAR - MONOPOLE P&S {F13.4}
   GR.GAPI                                                 :GAMMA RAY {F13.4}
  HD1.MM                                                   :HOLE DIAMETER 1 {F13.4}
  HD2.MM                                                   :HOLE DIAMETER 2 {F13.4}
  HD3.MM                                                   :HOLE DIAMETER 3 {F13.4}
 NPOR.V/V                                                  :ENHANCED THERMAL NEUTRON POROSITY {F13.4}
  PEF.                                                     :PHOTOELECTRIC FACTOR {F13.4}
 RHOB.K/M3                                                 :BULK DENSITY {F13.4}
 SPR1.                                                     :STC SLOWNESS PROJECTION, RECEIVER ARRAY - LOWER DIPOLE {AF13.4}
 TENS.LBF                                                  :CABLE TENSION {F13.4}
 VPVS.                                                     :COMPRESSIONAL TO SHEAR VELOSITY RATIO {F13.4}
~A         DEPT             BS           CALI           CHR1           CHR2           CHRP           CHRS           DRHO           DT1R            DT2           DT2R           DT4P           DT4S             GR            HD1            HD2            HD3           NPOR            PEF           RHOB           SPR1           TENS           VPVS
# ...
     2668.52400      311.10000      308.80660        0.84720        0.90190        0.38790        0.00000       -5.11500      487.99380      418.51280      437.54600      260.57640      432.68730       28.12990      315.58430      307.65640      305.55750        0.31760        3.82560     2371.99710       56.54140     6359.00000        1.60610
     2668.67640      311.10000      309.11560        0.85490        0.90150        0.44350        0.37740        5.60840      456.50710      415.71330      434.61930      222.73430      357.89470       26.82510      316.15520      309.07990      305.31090        0.16100        4.50350     2540.34420       60.90480     6297.00000        1.86640
     2668.82880      311.10000      308.69450        0.91520        0.92250        0.74290        0.00000        6.86840      409.88220      374.42180      389.57640      242.28780      396.49760       25.28300      315.13270      310.04350      305.80320        0.10480        4.49230     2612.47680       64.46940     6319.00000        1.54540
     2668.98120      311.10000      308.09610        0.95600        0.91790        0.59480        0.49820        3.59770      407.25790      374.72180      389.88850      243.07450      402.75000       24.19850      314.30340      308.46210      305.09660        0.12250        4.17780     2572.44560       67.12130     6292.00000        1.54160
     2669.13360      311.10000      307.67720        0.96520        0.92540        0.66370        0.47620       -3.15900      420.41140      394.68930      411.90700      247.44120      407.81540       24.43570      314.50980      306.48030      305.04890        0.18230        3.78380     2475.23190       61.57310     6254.00000        1.59510
     2669.28600      311.10000      307.78470        0.96150        0.93580        0.75640        0.55520       -7.14150      450.28610      437.45330      458.59450      259.90930      430.00850       27.96040      314.22440      307.36400      304.91790        0.27030        3.44500     2378.80420       54.52460     6255.00000        1.68310
     2669.43840      311.10000      307.53640        0.96840        0.95360        0.89920        0.47160       -7.61190      486.28470      456.04600      480.30120      273.98560      490.20930       31.16320      314.14400      306.65640      304.25300        0.36280        3.26040     2318.96070       66.10700     6277.00000        1.66450
     2669.59080      311.10000      307.66370        0.97120        0.95260        0.87990        0.64470       -9.29340      490.25220      460.76040      485.26630      276.55670      476.30700       33.65420      314.48890      306.67820      304.12700        0.34340        2.99580     2284.09350       57.42080     6260.00000        1.66610
     2669.74320      311.10000      307.72730        0.97320        0.93850        0.87610        0.75080      -10.21330      492.50470      460.68280      485.18460      277.11510      498.72740       38.78880      314.42020      306.48280      303.38750        0.26060        2.95120     2279.78610       47.55950     6383.00000        1.66240
     2669.89560      311.10000      308.70090        0.97460        0.95940        0.80560        0.71470      -11.23760      496.05890      462.27270      487.98980      273.65100      509.27710       46.45680      314.15410      306.73920      303.28220        0.25650        3.05000     2310.57130       40.07290     6371.00000        1.68930
     2670.04800      311.10000      307.32350        0.97270        0.96330        0.78480        0.61880       -6.11560      502.59530      471.07200      496.12640      276.47510      502.50310       47.28710      315.17130      306.81580      302.98840        0.27410        3.51110     2371.18920       35.70260     6309.00000        1.70380
     2670.20040      311.10000      308.22350        0.95860        0.96890        0.79910        0.57900       -6.57180      517.27470      485.84840      515.05190      284.28570      517.09910       42.89820      314.50620      306.42230      303.11950        0.31680        3.46760     2381.80130       34.10960     6373.00000        1.70900
     2670.35280      311.10000      307.85660        0.97330        0.97420        0.84090        0.60160       -8.93740      513.39050      494.47610      522.75730      284.51390      521.53940       33.56950      314.70720      308.63120      304.29810        0.30660        3.06030     2310.48970       29.81350     6284.00000        1.73800
     2670.50520      311.10000      308.15990        0.98090        0.98040        0.84610        0.61270      -17.26490      528.32210      504.03550      534.33200      297.74440      557.71330       29.77360      313.84760      308.57900      266.43320        0.31740        2.68890     2211.70360       23.16140     6329.00000        1.69280
     2670.65760      311.10000      307.42290        0.98880        0.98650        0.93480        0.54710      -17.23360      566.39780      536.22630      566.47600      300.90010      554.59810       28.23160      313.07490      305.71840      301.72990        0.33280        2.55050     2163.15840       14.71150     6355.00000        1.78210
     2670.81000      311.10000      307.98190        0.99040        0.98260        0.93830        0.50510      -15.96470      577.31560      543.79970      575.38850      306.49230      559.52610       28.35020      312.90650      306.16870      302.11810        0.31690        2.47710     2146.59470       21.08390     6340.00000        1.77430
     2670.96240      311.10000      308.14130        0.98900        0.97740        0.94900        0.67270      -11.31730      581.47500      554.61180      586.82870      304.03100      556.13460       28.50270      313.84010      308.32260      301.95500        0.31330        2.49350     2155.51460       21.82230     6384.00000        1.82420
     2671.11480      311.10000      307.86790        0.98440        0.97680        0.93950        0.71710      -13.81000      580.49260      545.87750      576.18480      299.67350      544.39000       30.40060      314.16690      308.49990      301.85900        0.34810        2.44230     2161.21680       25.59750     6390.00000        1.82160
     2671.26720      311.10000      308.90000        0.97850        0.96760        0.96150        0.64780      -11.72840      567.25560      529.01510      560.39730      296.73760      538.38260       33.24750      314.24740      308.32260      302.03740        0.34270        2.48710     2176.42820       31.51930     6305.00000        1.78280
     2671.41960      311.10000      307.38690        0.97840        0.96490        0.94300        0.68570       -4.77840      560.82200      532.47480      562.51300      294.02220      537.35310       34.63710      314.03360      307.49810      301.85400        0.34540        2.49680     2201.34720       30.94170     6330.00000        1.81100
     2671.57200      311.10000      308.14130        0.98110        0.97110        0.94660        0.46980       -4.45620      558.43010      529.46480      560.87380      295.81310      541.60830       35.82330      314.16690      308.37470      301.72780        0.31210        2.58930     2197.14090       29.10690     6317.00000        1.78990
     2671.72440      311.10000      307.98190        0.98410        0.98010        0.92170        0.47700       -5.09110      554.02720      522.14820      553.12310      291.68000      505.90080       34.75570      312.94910      307.41570      301.78040        0.33100        2.52500     2188.52200       28.01820     6309.00000        1.79010
     2671.87680      311.10000      308.28730        0.97500        0.98010        0.87830        0.45250       -6.81100      551.07780      517.03610      547.70780      284.40810      514.40000       36.65360      312.97440      307.24750      301.85400        0.31980        2.53040     2176.81300       36.69260     6357.00000        1.81790
     2672.02920      311.10000      307.86790        0.97460        0.97440        0.74340        0.35480       -4.95040      546.67600      509.62210      538.76960      276.48540      508.04480       32.85780      312.96670      308.37470      301.85400        0.31530        2.60990     2190.94480       40.73200     6333.00000        1.84320
