~VERSION
 VERS.        2.0                                          :CWLS Log ASCII Standard - VERSION 2.0
 WRAP.        NO                                           :One Line per depth step
 PROD.        Schlumberger                                 :LAS Producer
 PROG.        DLIS to ASCII 2.2                            :LAS Program name and version
 CREA.        2006/03/10 09:49                          :LAS Creation date {YYYY/MM/DD hh  :mm}
SOURCE.       DSI_EMS_LDL_CNL_NGS_030PUP.DLIS              :DLIS File Name
FILE-ID.      DSI_EMS_LDL_CNL_NGS_030PUP                   :File Identification Number
#--------------------------------------------------
~WELL
#MNEM.UNIT      DATA             DESCRIPTION
#---- ------ --------------   -----------------------------
 STRT.M       2193.03600                                                                                     :START DEPTH
 STOP.M       3388.15680                                                                                     :STOP DEPTH
 STEP.M       0.15240                                                                                        :STEP
 NULL.        -999.25000                                                                                     :NULL VALUE
 COMP.        EXXONMOBIL CANADA PROPERTIES                                                                   :COMPANY
 WELL.        EXXONMOBIL ET AL ALMA 3                                                                        :WELL
  FLD.        ALMA                                                                                           :FIELD
  LOC.        Offshore Nova Scotia - Sable Island                                                            :LOCATION
 PROV.        NOVA SCOTIA                                                                                    :PROVINCE
 CTRY.        CANADA                                                                                         :COUNTRY
  UWI.        303N764340060300                                                                               :UNIQUE WELL ID
 DATE.        04-Mar-2006                                                                                    :LOG DATE {DD-MMM-YYYY}
 SRVC.        Schlumberger                                                                                   :SERVICE COMPANY
 LATI.DEG     43 35' 47.74" N                                                                                :LATITUDE
 LONG.DEG     60 41' 22.69" W                                                                                :LONGITUDE
#-----------------------------------------------------------------------------
~PARAMETER
#MNEM.UNIT    VALUE                                        :DESCRIPTION
#----.----    ---------------                              :-------------------
  RUN.        ONE                                          :RUN NUMBER
 PDAT.        LLWLT                                        :PERMANENT DATUM
  EPD.M       0.000000                                     :ELEVATION OF PERMANENT DATUM ABOVE MEAN SEA LEVEL
  EPD.M       0.000000                                     :ELEVATION OF TOOL ZERO ABOVE MEAN SEA LEVEL
  LMF.        ROTARY TABLE                                 :LOGGING MEASURED FROM (NAME OF LOGGING ELEVATION REFERENCE)
  APD.M       56.700001                                    :ELEVATION OF DEPTH REFERENCE (LMF) ABOVE PERMANENT DATUM
~CURVE
#MNEM.UNIT    VALUE                                        :DESCRIPTION
#----.----    ---------------                              :-------------------
 DEPT.M       00 001 00 00                                 :Depth Index
   BS.MM                                                   :BIT SIZE {F13.4}
 CALI.MM                                                   :CALIPER {F13.4}
 CHR1.                                                     :LABEL PEAK COHERENCE, RECEIVER ARRAY - LOWER DIPOLE {F13.4}
 CHR2.                                                     :LABEL PEAK COHERENCE, RECEIVER ARRAY - UPPER DIPOLE {F13.4}
 CHRP.                                                     :LABEL PEAK COHERENCE, RECEIVER ARRAY, COMPRESSIONAL - MONOPOLE P&S {F13.4}
 CHRS.                                                     :LABEL PEAK COHERENCE, RECEIVER ARRAY, SHEAR - MONOPOLE P&S {F13.4}
 DRHO.K/M3                                                 :BULK DENSITY CORRECTION {F13.4}
 DT1R.US/M                                                 :DELTA-T SHEAR, RECEIVER ARRAY - LOWER DIPOLE {F13.4}
  DT2.US/M                                                 :DELTA-T SHEAR - UPPER DIPOLE {F13.4}
 DT2R.US/M                                                 :DELTA-T SHEAR, RECEIVER ARRAY - UPPER DIPOLE {F13.4}
 DT4P.US/M                                                 :DELTA-T COMPRESSIONAL - MONOPOLE P&S {F13.4}
 DT4S.US/M                                                 :DELTA-T SHEAR - MONOPOLE P&S {F13.4}
   GR.GAPI                                                 :GAMMA RAY {F13.4}
  HD1.MM                                                   :HOLE DIAMETER 1 {F13.4}
  HD2.MM                                                   :HOLE DIAMETER 2 {F13.4}
  HD3.MM                                                   :HOLE DIAMETER 3 {F13.4}
 NPOR.V/V                                                  :ENHANCED THERMAL NEUTRON POROSITY {F13.4}
  PEF.                                                     :PHOTOELECTRIC FACTOR {F13.4}
 RHOB.K/M3                                                 :BULK DENSITY {F13.4}
 SPR1.                                                     :STC SLOWNESS PROJECTION, RECEIVER ARRAY - LOWER DIPOLE {AF13.4}
 TENS.LBF                                                  :CABLE TENSION {F13.4}
 VPVS.                                                     :COMPRESSIONAL TO SHEAR VELOSITY RATIO {F13.4}
~A         DEPT             BS           CALI           CHR1           CHR2           CHRP           CHRS           DRHO           DT1R            DT2           DT2R           DT4P           DT4S             GR            HD1            HD2            HD3           NPOR            PEF           RHOB           SPR1           TENS           VPVS
# ...
     3147.66960      311.10000      309.29700        0.99050        0.98900        0.94290        0.89490       -3.80210      448.13840      425.22850      446.71550      262.53090      422.58870       44.35670      315.80010      310.89590      309.41390        0.27010        3.73720     2342.50830       43.94210     7212.00000        1.61970
     3147.82200      311.10000      308.96210        0.98940        0.98890        0.94240        0.87220        1.54860      444.80930      423.13400      444.51520      262.19460      415.85260       46.66980      315.36540      309.91380      308.95050        0.24560        3.19640     2351.01810       46.69860     7225.00000        1.61380
     3147.97440      311.10000      308.90260        0.98860        0.98570        0.93550        0.87630        5.94590      438.85180      422.72490      441.94970      261.16650      407.97560       45.12770      313.91760      310.41280      309.07650        0.23270        2.79400     2373.17430       49.60760     7147.00000        1.61860
     3148.12680      311.10000      309.41620        0.98880        0.98370        0.91820        0.87980        8.19800      433.55020      418.75430      437.79850      261.25780      404.68150       43.34840      287.45760      310.57650      309.28780        0.24240        2.81860     2388.70800       52.02150     7233.00000        1.60280
     3148.27920      311.10000      308.03240        0.98450        0.97880        0.94030        0.86790        9.89510      425.18890      411.96730      430.70290      257.55330      401.41650       44.00080      267.22670      311.27770      308.36680        0.22220        2.79440     2391.31490       56.18150     7215.00000        1.59950
     3148.43160      311.10000      308.52200        0.97710        0.97790        0.95760        0.79860        7.13740      415.01490      407.60500      426.14220      257.69400      414.44980       45.24630      312.81740      311.27770      308.36680        0.21590        2.75380     2387.73000       58.45350     7153.00000        1.58170
     3148.58400      311.10000      308.58160        0.97690        0.97840        0.94980        0.78170        3.56370      416.31510      406.13640      424.60680      257.82600      418.01730       42.88130      313.86710      309.88430      308.36680        0.22940        2.84140     2386.56520       60.20980     7301.00000        1.57520
     3148.73640      311.10000      308.06970        0.98480        0.96530        0.95650        0.77780        0.70820      406.62350      407.18510      425.70320      256.25400      419.30760       39.55990      312.85870      309.54060      308.28620        0.24160        2.79730     2386.49540       61.50680     7187.00000        1.58900
     3148.88880      311.10000      308.06970        0.98410        0.96510        0.95720        0.80310       -0.88970      405.08120      404.30390      422.69100      256.69120      410.04810       35.82340      313.87180      311.57620      308.36680        0.23360        2.98860     2418.54830       61.79590     7155.00000        1.57510
     3149.04120      311.10000      308.58160        0.98270        0.96480        0.96110        0.82850       -1.43360      413.39300      403.82030      422.18530      258.76340      411.41630       36.17920      313.97370      311.41600      309.67010        0.21410        3.21720     2434.12450       61.09260     7200.00000        1.56060
     3149.19360      311.10000      308.06970        0.98560        0.96650        0.95930        0.81920       -1.14500      414.70560      403.48650      421.83640      261.44300      415.11200       35.73440      313.96900      310.66010      309.45880        0.22410        3.16510     2429.86990       60.20930     7157.00000        1.54330
     3149.34600      311.10000      308.70090        0.99040        0.97210        0.98010        0.86720       -4.96510      419.23490      406.99340      425.50270      263.48430      418.79220       34.19230      315.36540      310.35870      309.45880        0.21900        2.97180     2392.86820       58.29000     7147.00000        1.54470
     3149.49840      311.10000      308.24810        0.99080        0.97580        0.97150        0.87930       -8.20150      423.38150      410.69930      429.37720      264.10870      426.31030       32.53170      315.41690      310.27800      309.40960        0.23420        2.63440     2369.13960       57.02140     7135.00000        1.55500
     3149.65080      311.10000      308.47430        0.99190        0.98860        0.94830        0.88150       -4.34400      426.89290      411.03730      429.73060      263.73600      427.07920       32.38340      315.36540      311.36640      309.19830        0.23800        2.89200     2363.14670       56.47990     7068.00000        1.55850
     3149.80320      311.10000      308.41470        0.99390        0.99110        0.92810        0.91190       -5.29410      429.22870      411.66500      430.38690      262.80260      430.19980       33.32490      314.83440      311.49240      309.45880        0.24180        2.84480     2339.04660       55.20500     7062.00000        1.56640
     3149.95560      311.10000      308.18870        0.99280        0.98930        0.92490        0.91040       -5.86900      431.55260      410.94220      429.63110      260.32080      420.42550       36.52770      314.53040      310.31210      309.53990        0.23380        2.89050     2331.70850       54.82330     7027.00000        1.57860
     3150.10800      311.10000      308.64460        0.99070        0.98710        0.88490        0.91330       -4.68580      429.54880      422.09160      441.28770      253.67390      414.94020       41.03530      315.22920      310.10270      309.32860        0.22170        2.78900     2353.70310       56.07260     6992.00000        1.66390
     3150.26040      311.10000      308.64120        0.98230        0.97880        0.84650        0.84170       -0.77160      412.32840      411.98870      430.72530      249.59890      412.85650       45.26110      315.13260      309.74240      309.40960        0.22700        2.98270     2403.03610       63.01110     7061.00000        1.65060
     3150.41280      311.10000      309.20000        0.97870        0.97530        0.84010        0.60360       -0.33130      394.93550      389.01820      404.76350      235.44060      380.35980       46.92180      316.76140      310.19150      309.32860        0.24850        3.23590     2457.49880       65.93340     6962.00000        1.65230
     3150.56520      311.10000      309.73550        0.97320        0.96690        0.90450        0.65720       -1.99080      387.38690      387.51320      403.19760      228.21120      364.43180       44.67540      317.66980      311.32420      309.45880        0.14960        3.31580     2528.94750       68.44140     7014.00000        1.69800
     3150.71760      311.10000      310.42970        0.97030        0.95720        0.92100        0.68780       -2.98630      371.65020      382.79210      398.28550      223.07040      362.14240       41.99910      315.56740      311.32420      308.03410        0.09160        3.84730     2608.60790       71.33090     7025.00000        1.71600
     3150.87000      311.10000      309.37850        0.96730        0.96270        0.85490        0.63060       -3.66650      376.50820      383.14500      398.65260      229.25870      371.29960       39.69340      315.43550      312.66570      307.64790        0.12030        4.37370     2634.97660       69.83410     6993.00000        1.67120
     3151.02240      311.10000      309.11820        0.95840        0.96490        0.83650        0.65400      -11.17000      379.44140      385.28620      400.88050      232.19830      382.42910       37.55080      314.44430      311.57580      308.48650        0.15630        4.02030     2557.69750       68.03370     7050.00000        1.65930
     3151.17480      311.10000      307.59370        0.96130        0.96050        0.87580        0.70710      -17.75190      388.90150      394.41580      409.74010      241.09370      393.29510       36.12730      314.40480      311.37420      308.33380        0.15800        3.72660     2458.85380       63.73100     7056.00000        1.63590
