~VERSION
 VERS.        2.0                                          :CWLS Log ASCII Standard - VERSION 2.0
 WRAP.        NO                                           :One Line per depth step
 PROD.        Schlumberger                                 :LAS Producer
 PROG.        DLIS to ASCII 2.2                            :LAS Program name and version
 CREA.        2006/03/10 09:49                          :LAS Creation date {YYYY/MM/DD hh  :mm}
SOURCE.       DSI_EMS_LDL_CNL_NGS_030PUP.DLIS              :DLIS File Name
FILE-ID.      DSI_EMS_LDL_CNL_NGS_030PUP                   :File Identification Number
#--------------------------------------------------
~WELL
#MNEM.UNIT      DATA             DESCRIPTION
#---- ------ --------------   -----------------------------
 STRT.M       2193.03600                                                                                     :START DEPTH
 STOP.M       3388.15680                                                                                     :STOP DEPTH
 STEP.M       0.15240                                                                                        :STEP
 NULL.        -999.25000                                                                                     :NULL VALUE
 COMP.        EXXONMOBIL CANADA PROPERTIES                                                                   :COMPANY
 WELL.        EXXONMOBIL ET AL ALMA 3                                                                        :WELL
  FLD.        ALMA                                                                                           :FIELD
  LOC.        Offshore Nova Scotia - Sable Island                                                            :LOCATION
 PROV.        NOVA SCOTIA                                                                                    :PROVINCE
 CTRY.        CANADA                                                                                         :COUNTRY
  UWI.        303N764340060300                                                                               :UNIQUE WELL ID
 DATE.        04-Mar-2006                                                                                    :LOG DATE {DD-MMM-YYYY}
 SRVC.        Schlumberger                                                                                   :SERVICE COMPANY
 LATI.DEG     43 35' 47.74" N                                                                                :LATITUDE
 LONG.DEG     60 41' 22.69" W                                                                                :LONGITUDE
#-----------------------------------------------------------------------------
~PARAMETER
#MNEM.UNIT    VALUE                                        :DESCRIPTION
#----.----    ---------------                              :-------------------
  RUN.        ONE                                          :RUN NUMBER
 PDAT.        LLWLT                                        :PERMANENT DATUM
  EPD.M       0.000000                                     :ELEVATION OF PERMANENT DATUM ABOVE MEAN SEA LEVEL
  EPD.M       0.000000                                     :ELEVATION OF TOOL ZERO ABOVE MEAN SEA LEVEL
  LMF.        ROTARY TABLE                                 :LOGGING MEASURED FROM (NAME OF LOGGING ELEVATION REFERENCE)
  APD.M       56.700001                                    :ELEVATION OF DEPTH REFERENCE (LMF) ABOVE PERMANENT DATUM
~CURVE
#MNEM.UNIT    VALUE                                        :DESCRIPTION
#----.----    ---------------                              :-------------------
 DEPT.M       00 001 00 00                                 :Depth Index
   BS.MM                                                   :BIT SIZE {F13.4}
 CALI.MM                                                   :CALIPER {F13.4}
 CHR1.                                                     :LABEL PEAK COHERENCE, RECEIVER ARRAY - LOWER DIPOLE {F13.4}
 CHR2.                                                     :LABEL PEAK COHERENCE, RECEIVER ARRAY - UPPER DIPOLE {F13.4}
 CHRP.                                                     :LABEL PEAK COHERENCE, RECEIVER ARRAY, COMPRESSIONAL - MONOPOLE P&S {F13.4}
 CHRS.                                                     :LABEL PEAK COHERENCE, RECEIVER ARRAY, SHEAR - MONOPOLE P&S {F13.4}
 DRHO.K/M3                                                 :BULK DENSITY CORRECTION {F13.4}
 DT1R.US/M                                                 :DELTA-T SHEAR, RECEIVER ARRAY - LOWER DIPOLE {F13.4}
  DT2.US/M                                                 :DELTA-T SHEAR - UPPER DIPOLE {F13.4}
 DT2R.US/M                                                 :DELTA-T SHEAR, RECEIVER ARRAY - UPPER DIPOLE {F13.4}
 DT4P.US/M                                                 :DELTA-T COMPRESSIONAL - MONOPOLE P&S {F13.4}
 DT4S.US/M                                                 :DELTA-T SHEAR - MONOPOLE P&S {F13.4}
   GR.GAPI                                                 :GAMMA RAY {F13.4}
  HD1.MM                                                   :HOLE DIAMETER 1 {F13.4}
  HD2.MM                                                   :HOLE DIAMETER 2 {F13.4}
  HD3.MM                                                   :HOLE DIAMETER 3 {F13.4}
 NPOR.V/V                                                  :ENHANCED THERMAL NEUTRON POROSITY {F13.4}
  PEF.                                                     :PHOTOELECTRIC FACTOR {F13.4}
 RHOB.K/M3                                                 :BULK DENSITY {F13.4}
 SPR1.                                                     :STC SLOWNESS PROJECTION, RECEIVER ARRAY - LOWER DIPOLE {AF13.4}
 TENS.LBF                                                  :CABLE TENSION {F13.4}
 VPVS.                                                     :COMPRESSIONAL TO SHEAR VELOSITY RATIO {F13.4}
~A         DEPT             BS           CALI           CHR1           CHR2           CHRP           CHRS           DRHO           DT1R            DT2           DT2R           DT4P           DT4S             GR            HD1            HD2            HD3           NPOR            PEF           RHOB           SPR1           TENS           VPVS
# ...
     2273.50320      311.10000      317.36250        0.97580        0.97560        0.93110        0.70050        6.26480      601.12180      578.79050      613.12550      299.41860      568.50230       80.38740      322.25410      293.35390      287.53010        0.34480        3.78060     2482.05300       78.31600     5937.00000        1.93300
     2273.65560      311.10000      317.65360        0.97520        0.97470        0.92520        0.65300        4.56060      634.84910      579.60490      613.98820      302.38720      567.83210       76.62120      327.12020      296.23780      292.38060        0.35960        3.73460     2475.40140       75.03920     5970.00000        1.91680
     2273.80800      311.10000      318.71610        0.97600        0.97230        0.92070        0.52150        7.45590      634.54630      579.34390      613.71180      302.33860      567.57030       75.84270      326.11400      297.41680      293.72800        0.34870        3.82740     2489.77760       75.67210     5951.00000        1.91620
     2273.96040      311.10000      317.37550        0.96230        0.97340        0.93220        0.44180        7.46210      630.99320      581.23810      615.71830      303.65950      572.40940       78.62290      325.63570      298.11530      293.46240        0.32200        3.95940     2492.87230       73.31930     5916.00000        1.91410
     2274.11280      311.10000      318.24330        0.96380        0.97400        0.94400        0.52870        1.41250      627.43260      575.09810      609.21410      301.98790      571.68650       85.07290      326.67100      297.96330      292.45680        0.34200        4.14930     2492.22290       73.48030     5837.00000        1.90440
     2274.26520      311.10000      317.77230        0.96560        0.97620        0.94310        0.52640       -3.33690      615.90440      571.94270      606.70710      303.18190      565.89220       82.70050      327.46530      298.14090      293.72800        0.39060        4.16180     2483.69040       69.16060     5836.00000        1.88650
     2274.41760      311.10000      317.83170        0.96480        0.98120        0.92550        0.56380       -6.41160      604.87350      568.58290      603.14290      301.59890      559.90250       78.25220      325.48620      298.54300      293.19680        0.41100        4.25380     2485.91410       69.48350     5831.00000        1.88520
     2274.57000      311.10000      317.71290        0.96520        0.97930        0.89060        0.56080       -7.85520      602.92160      567.74760      602.25690      294.45530      552.79650       78.36340      324.61400      298.24030      293.72800        0.36960        3.94540     2482.44070       67.99060     5783.00000        1.92810
     2274.72240      311.10000      318.24330        0.96830        0.98050        0.90290        0.46990       -3.34310      602.03940      568.37770      602.92530      293.77780      550.66980       78.83790      323.30080      297.48980      291.20230        0.32420        3.91210     2490.68920       63.07740     5806.00000        1.93470
     2274.87480      311.10000      317.75990        0.96740        0.96450        0.85870        0.42310        1.51490      610.88940      578.24180      612.54430      296.62790      552.90570       80.61720      322.53390      298.46360      292.45680        0.33520        3.72790     2488.83570       57.23590     5878.00000        1.94940
     2275.02720      311.10000      318.54070        0.96770        0.96370        0.87770        0.00000        6.15660      641.10050      601.12490      636.78490      303.19460      567.41430       74.94560      323.79690      298.76130      294.83710        0.33450        3.79570     2487.01590       63.45520     5776.00000        1.98260
     2275.17960      311.10000      317.95040        0.96910        0.96450        0.88990        0.00000       13.30420      662.16910      619.71190      655.57170      311.95860      580.23570       77.95560      325.85900      295.49380      294.63350        0.35210        3.74350     2486.74320       65.23100     5867.00000        1.98650
     2275.33200      311.10000      318.24730        0.96730        0.96630        0.85170        0.00000       15.35130      684.43760      616.38700      652.05440      315.92780      588.34590       79.84620      327.36480      297.68490      296.85240        0.40390        3.90530     2480.63130       70.69040     5848.00000        1.95100
     2275.48440      311.10000      318.83820        0.96700        0.96570        0.87300        0.00000       21.46210      688.45830      617.71600      653.46030      318.97400      590.29220       82.29270      324.05760      296.47020      298.15080        0.39990        4.06060     2477.49170       73.27000     5792.00000        1.93660
     2275.63680      311.10000      318.36610        0.96630        0.96720        0.83900        0.00000       27.62490      680.83800      626.63560      662.89610      326.27900      589.35520       81.40310      328.00750      296.54900      300.55730        0.36880        4.49590     2471.55740       70.14550     5807.00000        1.92060
     2275.78920      311.10000      317.98270        0.96180        0.95050        0.85220        0.00000       36.02850      642.97180      611.01410      646.37050      321.02590      588.41820       80.92860      328.98630      298.98530      297.97020        0.39340        4.79400     2459.40410       67.63870     5840.00000        1.90330
     2275.94160      311.10000      318.23920        0.96830        0.94530        0.87330        0.00000       52.66240      630.53340      601.83070      637.53260      311.88590      583.54220       87.15620      331.01300      301.32360      297.17080        0.47050        5.53200     2447.53150       70.41310     5835.00000        1.92970
     2276.09400      311.10000      316.47360        0.96610        0.94520        0.88870        0.37210       53.38350      616.03810      590.81210      625.86020      309.18040      581.67630       81.59580      328.07560      300.30760      299.29850        0.45440        5.84150     2453.64670       61.98210     5891.00000        1.91090
     2276.24640      311.10000      316.34730        0.96930        0.95530        0.85440        0.50830       44.02760      598.05290      567.49270      601.98650      302.09280      569.76070       78.95650      328.05110      307.45100      296.96120        0.39620        7.02950     2490.27950       70.37580     5743.00000        1.87850
     2276.39880      311.10000      315.49690        0.96960        0.95700        0.88950        0.43280       53.40610      604.62690      561.69660      595.83810      298.54730      573.49980       73.17370      322.58010      300.16810      292.83680        0.34740        5.15360     2550.96880       70.46980     5845.00000        1.88140
     2276.55120      311.10000      314.04410        0.95760        0.95530        0.83480        0.00000       32.43620      608.40010      567.34990      600.30670      297.60390      573.17490       76.13930      323.25850      296.28970      294.15420        0.34980        4.45660     2553.09960       60.12910     5866.00000        1.90640
     2276.70360      311.10000      315.02110        0.95910        0.97440        0.87420        0.00000        4.99520      617.46360      570.17740      604.83430      299.22090      570.86530       75.47200      322.73630      297.29160      291.61760        0.32700        3.60580     2503.85790       79.33420     5882.00000        1.90550
     2276.85600      311.10000      315.57540        0.96050        0.97640        0.87820        0.00000        3.66230      619.74550      576.37850      610.57040      300.62120      572.06130       75.58320      322.86010      297.16640      292.57830        0.36470        3.79420     2482.52730       76.27050     5972.00000        1.91730
     2277.00840      311.10000      315.81290        0.96120        0.97740        0.88310        0.00000       10.02870      626.29600      579.52730      613.90610      302.96740      576.54830       77.62200      322.86010      295.66310      292.03640        0.35420        3.77160     2457.16260       77.79980     5874.00000        1.91280
