~VERSION
 VERS.        2.0                                          :CWLS Log ASCII Standard - VERSION 2.0
 WRAP.        NO                                           :One Line per depth step
 PROD.        Schlumberger                                 :LAS Producer
 PROG.        DLIS to ASCII 2.2                            :LAS Program name and version
 CREA.        2006/03/10 09:49                          :LAS Creation date {YYYY/MM/DD hh  :mm}
SOURCE.       DSI_EMS_LDL_CNL_NGS_030PUP.DLIS              :DLIS File Name
FILE-ID.      DSI_EMS_LDL_CNL_NGS_030PUP                   :File Identification Number
#--------------------------------------------------
~WELL
#MNEM.UNIT      DATA             DESCRIPTION
#---- ------ --------------   -----------------------------
 STRT.M       2193.03600                                                                                     :START DEPTH
 STOP.M       3388.15680                                                                                     :STOP DEPTH
 STEP.M       0.15240                                                                                        :STEP
 NULL.        -999.25000                                                                                     :NULL VALUE
 COMP.        EXXONMOBIL CANADA PROPERTIES                                                                   :COMPANY
 WELL.        EXXONMOBIL ET AL ALMA 3                                                                        :WELL
  FLD.        ALMA                                                                                           :FIELD
  LOC.        Offshore Nova Scotia - Sable Island                                                            :LOCATION
 PROV.        NOVA SCOTIA                                                                                    :PROVINCE
 CTRY.        CANADA                                                                                         :COUNTRY
  UWI.        303N764340060300                                                                               :UNIQUE WELL ID
 DATE.        04-Mar-2006                                                                                    :LOG DATE {DD-MMM-YYYY}
 SRVC.        Schlumberger                                                                                   :SERVICE COMPANY
 LATI.DEG     43 35' 47.74" N                                                                                :LATITUDE
 LONG.DEG     60 41' 22.69" W                                                                                :LONGITUDE
#-----------------------------------------------------------------------------
~PARAMETER
#MNEM.UNIT    VALUE                                        :DESCRIPTION
#----.----    ---------------                              :-------------------
  RUN.        ONE                                          :RUN NUMBER
 PDAT.        LLWLT                                        :PERMANENT DATUM
  EPD.M       0.000000                                     :ELEVATION OF PERMANENT DATUM ABOVE MEAN SEA LEVEL
  EPD.M       0.000000                                     :ELEVATION OF TOOL ZERO ABOVE MEAN SEA LEVEL
  LMF.        ROTARY TABLE                                 :LOGGING MEASURED FROM (NAME OF LOGGING ELEVATION REFERENCE)
  APD.M       56.700001                                    :ELEVATION OF DEPTH REFERENCE (LMF) ABOVE PERMANENT DATUM
~CURVE
#MNEM.UNIT    VALUE                                        :DESCRIPTION
#----.----    ---------------                              :-------------------
 DEPT.M       00 001 00 00                                 :Depth Index
   BS.MM                                                   :BIT SIZE {F13.4}
 CALI.MM                                                   :CALIPER {F13.4}
 CHR1.                                                     :LABEL PEAK COHERENCE, RECEIVER ARRAY - LOWER DIPOLE {F13.4}
 CHR2.                                                     :LABEL PEAK COHERENCE, RECEIVER ARRAY - UPPER DIPOLE {F13.4}
 CHRP.                                                     :LABEL PEAK COHERENCE, RECEIVER ARRAY, COMPRESSIONAL - MONOPOLE P&S {F13.4}
 CHRS.                                                     :LABEL PEAK COHERENCE, RECEIVER ARRAY, SHEAR - MONOPOLE P&S {F13.4}
 DRHO.K/M3                                                 :BULK DENSITY CORRECTION {F13.4}
 DT1R.US/M                                                 :DELTA-T SHEAR, RECEIVER ARRAY - LOWER DIPOLE {F13.4}
  DT2.US/M                                                 :DELTA-T SHEAR - UPPER DIPOLE {F13.4}
 DT2R.US/M                                                 :DELTA-T SHEAR, RECEIVER ARRAY - UPPER DIPOLE {F13.4}
 DT4P.US/M                                                 :DELTA-T COMPRESSIONAL - MONOPOLE P&S {F13.4}
 DT4S.US/M                                                 :DELTA-T SHEAR - MONOPOLE P&S {F13.4}
   GR.GAPI                                                 :GAMMA RAY {F13.4}
  HD1.MM                                                   :HOLE DIAMETER 1 {F13.4}
  HD2.MM                                                   :HOLE DIAMETER 2 {F13.4}
  HD3.MM                                                   :HOLE DIAMETER 3 {F13.4}
 NPOR.V/V                                                  :ENHANCED THERMAL NEUTRON POROSITY {F13.4}
  PEF.                                                     :PHOTOELECTRIC FACTOR {F13.4}
 RHOB.K/M3                                                 :BULK DENSITY {F13.4}
 SPR1.                                                     :STC SLOWNESS PROJECTION, RECEIVER ARRAY - LOWER DIPOLE {AF13.4}
 TENS.LBF                                                  :CABLE TENSION {F13.4}
 VPVS.                                                     :COMPRESSIONAL TO SHEAR VELOSITY RATIO {F13.4}
~A         DEPT             BS           CALI           CHR1           CHR2           CHRP           CHRS           DRHO           DT1R            DT2           DT2R           DT4P           DT4S             GR            HD1            HD2            HD3           NPOR            PEF           RHOB           SPR1           TENS           VPVS
# ...
     2511.24720      311.10000      313.37310        0.97120        0.95470        0.93700        0.75710       -9.13690      565.73410      549.04060      580.93380      301.06070      545.56180       79.95750      322.39430      303.53100      267.10990        0.38060        4.03780     2459.30370       34.91350     6148.00000        1.82370
     2511.39960      311.10000      314.24000        0.97020        0.95440        0.93380        0.76920       -8.21290      565.97510      549.11690      581.01460      300.31240      545.15980       82.07040      321.60080      303.35280      295.95150        0.36550        3.96870     2454.37820       36.03420     6265.00000        1.82850
     2511.55200      311.10000      313.67540        0.97040        0.95470        0.93360        0.77070       -8.81120      565.93120      549.06290      580.95750      300.60740      546.43660       82.73770      321.55550      302.20960      297.16490        0.41500        4.03610     2460.63010       37.89410     6322.00000        1.82650
     2511.70440      311.10000      313.80580        0.97090        0.96670        0.92480        0.73430       -9.51250      566.77670      547.14390      578.92700      298.47490      544.67740       83.29370      320.72450      301.09450      296.56950        0.42160        3.99240     2451.56570       37.56750     6196.00000        1.83310
     2511.85680      311.10000      313.67540        0.97500        0.96730        0.94220        0.75780       -7.64600      560.75050      541.40800      573.52540      297.69920      539.24980       79.51270      319.06900      301.04230      296.34030        0.39440        4.14910     2442.04760       30.35160     6332.00000        1.81860
     2512.00920      311.10000      313.75010        0.97670        0.97290        0.94510        0.76440       -5.13360      561.30130      534.87270      566.60240      296.52400      533.88260       81.95920      318.92120      300.01620      293.98130        0.32930        3.94180     2435.34180       29.38780     6228.00000        1.80380
     2512.16160      311.10000      313.86150        0.97800        0.97100        0.95230        0.82350       -2.95810      561.96390      533.67800      565.33690      293.70790      530.58220       80.51350      316.77510      299.91820      293.79070        0.35970        3.73180     2443.64890       31.39990     6192.00000        1.81700
     2512.31400      311.10000      313.73470        0.97620        0.96930        0.94600        0.74980        1.49510      560.26640      531.66580      563.20530      291.90680      524.41420       80.62470      316.51670      303.66160      292.43930        0.37460        3.56630     2455.79170       37.42880     6185.00000        1.82140
     2512.46640      311.10000      314.24000        0.96480        0.97160        0.93880        0.72990        2.45850      555.79320      529.29880      560.69790      288.36420      518.47420       81.29200      318.69110      305.60170      294.81210        0.32650        3.57060     2460.37920       27.98600     6293.00000        1.83550
     2512.61880      311.10000      313.73470        0.96270        0.97100        0.93140        0.76600        1.35890      552.72580      528.56910      559.92490      286.22400      515.55400       79.51270      319.69920      306.87100      295.33890        0.33690        3.62090     2457.70580       29.39370     6270.00000        1.84670
     2512.77120      311.10000      313.69430        0.97220        0.95420        0.91510        0.74110       -0.61250      540.41930      529.09360      560.48050      286.21110      511.69340       80.84710      319.73850      305.83930      296.13440        0.39920        3.73470     2463.98510       39.25670     6345.00000        1.84860
     2512.92360      311.10000      313.73470        0.97340        0.95230        0.93360        0.73950       -1.80830      539.54460      530.42880      561.89480      289.45810      516.92540       73.95230      321.03700      306.12140      297.25850        0.34140        3.55800     2458.50900       43.19570     6376.00000        1.83250
     2513.07600      311.10000      314.24000        0.97490        0.95180        0.92840        0.74050       -0.33120      539.50340      530.66520      562.14540      287.81430      516.82770       73.84110      321.84750      307.19260      298.94620        0.28390        3.64860     2465.19120       49.53970     6371.00000        1.84380
     2513.22840      311.10000      313.55660        0.97670        0.95100        0.91550        0.69930       -3.26350      542.34940      532.28850      563.86490      289.28760      523.68520       70.94970      321.08960      304.86390      299.49850        0.32660        3.61540     2450.39530       53.05990     6413.00000        1.84000
     2513.38080      311.10000      313.67540        0.97720        0.95130        0.90270        0.69890       -3.53890      545.31180      533.68920      565.34880      292.73660      532.10380       71.28340      320.61150      305.84130      296.39760        0.37270        3.86330     2460.03860       50.28650     6304.00000        1.82310
     2513.53320      311.10000      313.75010        0.97790        0.95220        0.88640        0.65860       -1.86190      550.23910      535.19230      566.94100      295.11800      539.05190       72.95150      319.76250      305.18820      296.20550        0.37830        3.84580     2451.37180       47.64960     6261.00000        1.81350
     2513.68560      311.10000      314.29580        0.97710        0.95230        0.85840        0.60340       -5.43820      552.98010      546.12300      577.84690      297.27780      542.98940       75.27370      319.41460      305.32020      293.41920        0.34120        3.72410     2423.18630       47.65840     6257.00000        1.83710
     2513.83800      311.10000      313.55660        0.97650        0.95380        0.87390        0.69570       -4.83550      555.43850      556.46720      588.79190      299.81850      543.46240       77.94270      320.13990      304.66690      295.68210        0.32090        3.45630     2391.14750       45.32480     6215.00000        1.85600
     2513.99040      311.10000      314.29580        0.97310        0.94680        0.88180        0.68960        2.05960      564.71530      529.71890      561.14290      298.58420      537.27260       79.72200      321.37650      303.45200      297.28180        0.32760        3.50790     2396.52710       30.95620     6208.00000        1.77410
     2514.14280      311.10000      314.03160        0.96940        0.97190        0.90530        0.00000        6.74500      542.92650      514.47930      544.99930      290.99510      528.62490       80.17990      324.36570      303.63150      298.03070        0.41330        3.68060     2420.89790       38.06290     6230.00000        1.76800
     2514.29520      311.10000      315.25380        0.97380        0.97270        0.85890        0.60620       11.89680      541.86160      524.92630      557.60170      292.21950      525.64830       81.18080      323.30740      303.88170      255.05860        0.40200        3.87430     2456.85400       51.42010     6211.00000        1.79630
     2514.44760      311.10000      315.93170        0.98080        0.97070        0.85500        0.57120       11.34100      559.09810      524.89870      557.57240      292.63280      525.81080       77.06610      323.55120      304.74880      297.39540        0.41720        3.78180     2448.23750       40.06030     6254.00000        1.79370
     2514.60000      311.10000      315.97780        0.98080        0.97070        0.85360        0.57500        3.77120      559.17030      524.88920      557.56240      287.22240      520.32200       73.04960      324.75240      304.99840      298.74110        0.36250        3.74240     2417.67360       36.71640     6210.00000        1.82750
     2514.75240      311.10000      316.39890        0.98080        0.97070        0.85420        0.57560       -3.17570      559.18930      524.87570      557.54800      284.47270      512.53540       66.54720      323.32890      305.51840      300.25220        0.29190        4.07630     2405.83330       37.15030     6277.00000        1.84510
