~VERSION
 VERS.        2.0                                          :CWLS Log ASCII Standard - VERSION 2.0
 WRAP.        NO                                           :One Line per depth step
 PROD.        Schlumberger                                 :LAS Producer
 PROG.        DLIS to ASCII 2.2                            :LAS Program name and version
 CREA.        2006/03/10 09:49                          :LAS Creation date {YYYY/MM/DD hh  :mm}
SOURCE.       DSI_EMS_LDL_CNL_NGS_030PUP.DLIS              :DLIS File Name
FILE-ID.      DSI_EMS_LDL_CNL_NGS_030PUP                   :File Identification Number
#--------------------------------------------------
~WELL
#MNEM.UNIT      DATA             DESCRIPTION
#---- ------ --------------   -----------------------------
 STRT.M       2193.03600                                                                                     :START DEPTH
 STOP.M       3388.15680                                                                                     :STOP DEPTH
 STEP.M       0.15240                                                                                        :STEP
 NULL.        -999.25000                                                                                     :NULL VALUE
 COMP.        EXXONMOBIL CANADA PROPERTIES                                                                   :COMPANY
 WELL.        EXXONMOBIL ET AL ALMA 3                                                                        :WELL
  FLD.        ALMA                                                                                           :FIELD
  LOC.        Offshore Nova Scotia - Sable Island                                                            :LOCATION
 PROV.        NOVA SCOTIA                                                                                    :PROVINCE
 CTRY.        CANADA                                                                                         :COUNTRY
  UWI.        303N764340060300                                                                               :UNIQUE WELL ID
 DATE.        04-Mar-2006                                                                                    :LOG DATE {DD-MMM-YYYY}
 SRVC.        Schlumberger                                                                                   :SERVICE COMPANY
 LATI.DEG     43 35' 47.74" N                                                                                :LATITUDE
 LONG.DEG     60 41' 22.69" W                                                                                :LONGITUDE
#-----------------------------------------------------------------------------
~PARAMETER
#MNEM.UNIT    VALUE                                        :DESCRIPTION
#----.----    ---------------                              :-------------------
  RUN.        ONE                                          :RUN NUMBER
 PDAT.        LLWLT                                        :PERMANENT DATUM
  EPD.M       0.000000                                     :ELEVATION OF PERMANENT DATUM ABOVE MEAN SEA LEVEL
  EPD.M       0.000000                                     :ELEVATION OF TOOL ZERO ABOVE MEAN SEA LEVEL
  LMF.        ROTARY TABLE                                 :LOGGING MEASURED FROM (NAME OF LOGGING ELEVATION REFERENCE)
  APD.M       56.700001                                    :ELEVATION OF DEPTH REFERENCE (LMF) ABOVE PERMANENT DATUM
~CURVE
#MNEM.UNIT    VALUE                                        :DESCRIPTION
#----.----    ---------------                              :-------------------
 DEPT.M       00 001 00 00                                 :Depth Index
   BS.MM                                                   :BIT SIZE {F13.4}
 CALI.MM                                                   :CALIPER {F13.4}
 CHR1.                                                     :LABEL PEAK COHERENCE, RECEIVER ARRAY - LOWER DIPOLE {F13.4}
 CHR2.                                                     :LABEL PEAK COHERENCE, RECEIVER ARRAY - UPPER DIPOLE {F13.4}
 CHRP.                                                     :LABEL PEAK COHERENCE, RECEIVER ARRAY, COMPRESSIONAL - MONOPOLE P&S {F13.4}
 CHRS.                                                     :LABEL PEAK COHERENCE, RECEIVER ARRAY, SHEAR - MONOPOLE P&S {F13.4}
 DRHO.K/M3                                                 :BULK DENSITY CORRECTION {F13.4}
 DT1R.US/M                                                 :DELTA-T SHEAR, RECEIVER ARRAY - LOWER DIPOLE {F13.4}
  DT2.US/M                                                 :DELTA-T SHEAR - UPPER DIPOLE {F13.4}
 DT2R.US/M                                                 :DELTA-T SHEAR, RECEIVER ARRAY - UPPER DIPOLE {F13.4}
 DT4P.US/M                                                 :DELTA-T COMPRESSIONAL - MONOPOLE P&S {F13.4}
 DT4S.US/M                                                 :DELTA-T SHEAR - MONOPOLE P&S {F13.4}
   GR.GAPI                                                 :GAMMA RAY {F13.4}
  HD1.MM                                                   :HOLE DIAMETER 1 {F13.4}
  HD2.MM                                                   :HOLE DIAMETER 2 {F13.4}
  HD3.MM                                                   :HOLE DIAMETER 3 {F13.4}
 NPOR.V/V                                                  :ENHANCED THERMAL NEUTRON POROSITY {F13.4}
  PEF.                                                     :PHOTOELECTRIC FACTOR {F13.4}
 RHOB.K/M3                                                 :BULK DENSITY {F13.4}
 SPR1.                                                     :STC SLOWNESS PROJECTION, RECEIVER ARRAY - LOWER DIPOLE {AF13.4}
 TENS.LBF                                                  :CABLE TENSION {F13.4}
 VPVS.                                                     :COMPRESSIONAL TO SHEAR VELOSITY RATIO {F13.4}
~A         DEPT             BS           CALI           CHR1           CHR2           CHRP           CHRS           DRHO           DT1R            DT2           DT2R           DT4P           DT4S             GR            HD1            HD2            HD3           NPOR            PEF           RHOB           SPR1           TENS           VPVS
     2193.03600      311.10000      308.62850        0.96720        0.95110        0.85910        0.00000       -4.58360      648.57130      603.09590      637.45470      311.02840      537.25900       45.74270      316.10420      299.10550      297.09810        0.35960        2.65780     2107.91360       66.15510     5645.00000        1.87260
     2193.18840      311.10000      308.96050        0.96720        0.95110        0.85910        0.00000       -4.68620      648.57130      603.09590      637.45470      311.02840      537.25900       48.70820      315.89910      300.91240      297.92380        0.35670        2.65920     2111.66060       62.29260     5643.00000        1.87260
     2193.34080      311.10000      308.74720        0.96720        0.95110        0.85910        0.00000       -3.72280      648.57130      603.09590      637.45470      311.02840      537.25900       46.70650      316.70830      301.11150      297.15000        0.35570        2.61280     2113.46340       75.06830     5659.00000        1.87260
     2193.49320      311.10000      309.08110        0.96720        0.95110        0.85910        0.00000       -5.96030      648.57130      603.09590      637.45470      311.02840      537.25900       47.53680      317.20070      299.40960      295.52050        0.37100        2.55690     2117.13260       85.45040     5661.00000        1.87260
     2193.64560      311.10000      309.65470        0.96720        0.95110        0.85910        0.00000       -7.52350      648.57130      603.09590      637.45470      311.02840      537.25900       48.84170      315.56860      296.15370      292.60580        0.35820        2.55000     2112.73100       82.30220     5737.00000        1.87260
     2193.79800      311.10000      308.23690        0.96720        0.95110        0.85910        0.00000       -9.55550      648.57130      603.09590      637.45470      311.02840      537.25900       50.50980      316.43770      290.92330      292.57480        0.36640        2.49490     2109.22580       82.40330     5695.00000        1.87260
     2193.95040      311.10000      308.86600        0.96720        0.95110        0.85910        0.00000       -7.77660      648.57130      603.09590      637.45470      311.02840      537.25900       52.05180      317.24580      295.17650      293.34490        0.37820        2.48420     2112.78590       76.67090     5663.00000        1.87260
     2194.10280      311.10000      308.84910        0.96720        0.95110        0.85910        0.00000       -9.58290      648.57130      603.09590      637.45470      311.02840      537.25900       51.68120      317.70010      291.88960      291.30250        0.38840        2.56670     2116.61890       74.77310     5669.00000        1.87260
     2194.25520      311.10000      309.14060        0.96720        0.95110        0.85910        0.00000      -10.28950      648.57130      603.09590      637.45470      311.02840      537.25900       54.90620      313.40200      295.02750      288.41460        0.37170        2.66990     2116.75630       67.64700     5609.00000        1.87260
     2194.40760      311.10000      308.80660        0.96720        0.95110        0.85910        0.00000      -11.78090      648.57130      603.09590      637.45470      311.02840      537.25900       59.41370      313.58750      294.01500      292.21620        0.41120        2.72330     2109.30640       71.45600     5650.00000        1.87260
     2194.56000      311.10000      309.14060        0.96720        0.95110        0.85910        0.00000      -12.34250      648.57130      603.09590      637.45470      311.02840      537.25900       61.32650      315.21210      296.01900      292.45680        0.41170        2.66020     2103.14060       60.06540     5687.00000        1.87260
     2194.71240      311.10000      308.74720        0.96720        0.95110        0.85910        0.00000      -16.94690      648.57130      603.09590      637.45470      311.02840      537.25900       64.32910      315.88750      296.29850      292.52310        0.40810        2.58480     2090.55300       59.90400     5606.00000        1.87260
     2194.86480      311.10000      309.25960        0.96720        0.95110        0.85910        0.00000      -17.84800      648.57130      603.09590      637.45470      311.02840      537.25900       65.87120      315.84560      291.95180      288.79030        0.36970        2.59830     2095.60450       58.92020     5631.00000        1.87260
     2195.01720      311.10000      308.80660        0.96720        0.95110        0.85910        0.00000       -8.83380      648.57130      603.09590      637.45470      311.02840      537.25900       69.40750      317.01370      291.09010      288.65740        0.36920        2.62150     2134.93290       77.65850     5590.00000        1.87260
     2195.16960      311.10000      308.98470        0.96720        0.95110        0.88540        0.00000       -1.04990      648.57130      603.09590      637.45470      311.12050      533.64450       69.13320      317.91620      287.02760      284.85270        0.39940        3.24920     2225.21070       67.91660     5568.00000        1.87260
     2195.32200      311.10000      309.43800        0.96720        0.95110        0.85350        0.00000        3.30900      648.57130      603.09590      637.45470      309.65920      526.72290       71.50560      320.51610      294.66770      286.11300        0.47590        3.62200     2283.39700       80.47050     5588.00000        1.87260
     2195.47440      311.10000      309.04410        0.96720        0.95110        0.84220        0.00000        0.11220      648.57130      603.09590      637.45470      314.12660      529.80330       72.47680      318.49060      293.96540      287.46760        0.45030        3.44360     2255.46360       39.15360     5536.00000        1.87260
     2195.62680      311.10000      308.68780        0.96720        0.95110        0.88290        0.00000       -7.13020      648.57130      603.09590      637.45470      319.74470      559.95590       71.97270      314.26000      294.66770      285.35140        0.38440        3.03330     2167.84420       68.89550     5689.00000        1.87260
     2195.77920      311.10000      309.44130        0.96720        0.95110        0.87330        0.00000      -14.35820      648.57130      603.09590      637.45470      322.07020      566.62940       72.32860      310.40940      292.03490      283.81670        0.37110        2.80850     2109.61670       78.92960     5831.00000        1.87260
     2195.93160      311.10000      309.34100        0.97090        0.95610        0.89420        0.00000       -8.63870      655.46830      605.16990      639.64690      323.91390      571.19930       69.24440      316.92060      298.54300      292.59870        0.36080        2.90120     2111.91060       58.85690     5755.00000        1.86830
     2196.08400      311.10000      309.97350        0.97740        0.96760        0.88410        0.00000        4.10860      664.69040      620.18130      654.82140      329.68840      570.36200       74.91600      317.78270      294.95730      290.48360        0.37260        3.25160     2170.25120       77.30360     5817.00000        1.88110
     2196.23640      311.10000      310.52850        0.98240        0.98880        0.88810        0.00000       38.88550      696.16960      636.31480      671.85600      315.24440      569.52470       77.52560      319.13290      292.17540      288.38670        0.41700        4.18520     2278.58810       68.79670     5755.00000        2.01850
     2196.38880      311.10000      311.30040        0.97550        0.98440        0.86180        0.00000       70.41900      694.94350      635.52330      671.02030      318.63380      568.68740       84.16840      323.30360      299.85680      287.18280        0.46250        5.29590     2409.96120       67.19460     5599.00000        1.99450
     2196.54120      311.10000      316.99390        0.96560        0.97800        0.87680        0.00000       73.91670      681.43070      630.31110      666.78420      320.45940      569.64590       84.10170      323.60450      298.62000      288.82030        0.44840        5.49040     2484.89870       68.72290     5550.00000        1.96690
