~VERSION
 VERS.        2.0                                          :CWLS Log ASCII Standard - VERSION 2.0
 WRAP.        NO                                           :One Line per depth step
 PROD.        Schlumberger                                 :LAS Producer
 PROG.        DLIS to ASCII 2.2                            :LAS Program name and version
 CREA.        2006/03/10 09:49                          :LAS Creation date {YYYY/MM/DD hh  :mm}
SOURCE.       DSI_EMS_LDL_CNL_NGS_030PUP.DLIS              :DLIS File Name
FILE-ID.      DSI_EMS_LDL_CNL_NGS_030PUP                   :File Identification Number
#--------------------------------------------------
~WELL
#MNEM.UNIT      DATA             DESCRIPTION
#---- ------ --------------   -----------------------------
 STRT.M       2193.03600                                                                                     :START DEPTH
 STOP.M       3388.15680                                                                                     :STOP DEPTH
 STEP.M       0.15240                                                                                        :STEP
 NULL.        -999.25000                                                                                     :NULL VALUE
 COMP.        EXXONMOBIL CANADA PROPERTIES                                                                   :COMPANY
 WELL.        EXXONMOBIL ET AL ALMA 3                                                                        :WELL
  FLD.        ALMA                                                                                           :FIELD
  LOC.        Offshore Nova Scotia - Sable Island                                                            :LOCATION
 PROV.        NOVA SCOTIA                                                                                    :PROVINCE
 CTRY.        CANADA                                                                                         :COUNTRY
  UWI.        303N764340060300                                                                               :UNIQUE WELL ID
 DATE.        04-Mar-2006                                                                                    :LOG DATE {DD-MMM-YYYY}
 SRVC.        Schlumberger                                                                                   :SERVICE COMPANY
 LATI.DEG     43 35' 47.74" N                                                                                :LATITUDE
 LONG.DEG     60 41' 22.69" W                                                                                :LONGITUDE
#-----------------------------------------------------------------------------
~PARAMETER
#MNEM.UNIT    VALUE                                        :DESCRIPTION
#----.----    ---------------                              :-------------------
  RUN.        ONE                                          :RUN NUMBER
 PDAT.        LLWLT                                        :PERMANENT DATUM
  EPD.M       0.000000                                     :ELEVATION OF PERMANENT DATUM ABOVE MEAN SEA LEVEL
  EPD.M       0.000000                                     :ELEVATION OF TOOL ZERO ABOVE MEAN SEA LEVEL
  LMF.        ROTARY TABLE                                 :LOGGING MEASURED FROM (NAME OF LOGGING ELEVATION REFERENCE)
  APD.M       56.700001                                    :ELEVATION OF DEPTH REFERENCE (LMF) ABOVE PERMANENT DATUM
~CURVE
#MNEM.UNIT    VALUE                                        :DESCRIPTION
#----.----    ---------------                              :-------------------
 DEPT.M       00 001 00 00                                 :Depth Index
   BS.MM                                                   :BIT SIZE {F13.4}
 CALI.MM                                                   :CALIPER {F13.4}
 CHR1.                                                     :LABEL PEAK COHERENCE, RECEIVER ARRAY - LOWER DIPOLE {F13.4}
 CHR2.                                                     :LABEL PEAK COHERENCE, RECEIVER ARRAY - UPPER DIPOLE {F13.4}
 CHRP.                                                     :LABEL PEAK COHERENCE, RECEIVER ARRAY, COMPRESSIONAL - MONOPOLE P&S {F13.4}
 CHRS.                                                     :LABEL PEAK COHERENCE, RECEIVER ARRAY, SHEAR - MONOPOLE P&S {F13.4}
 DRHO.K/M3                                                 :BULK DENSITY CORRECTION {F13.4}
 DT1R.US/M                                                 :DELTA-T SHEAR, RECEIVER ARRAY - LOWER DIPOLE {F13.4}
  DT2.US/M                                                 :DELTA-T SHEAR - UPPER DIPOLE {F13.4}
 DT2R.US/M                                                 :DELTA-T SHEAR, RECEIVER ARRAY - UPPER DIPOLE {F13.4}
 DT4P.US/M                                                 :DELTA-T COMPRESSIONAL - MONOPOLE P&S {F13.4}
 DT4S.US/M                                                 :DELTA-T SHEAR - MONOPOLE P&S {F13.4}
   GR.GAPI                                                 :GAMMA RAY {F13.4}
  HD1.MM                                                   :HOLE DIAMETER 1 {F13.4}
  HD2.MM                                                   :HOLE DIAMETER 2 {F13.4}
  HD3.MM                                                   :HOLE DIAMETER 3 {F13.4}
 NPOR.V/V                                                  :ENHANCED THERMAL NEUTRON POROSITY {F13.4}
  PEF.                                                     :PHOTOELECTRIC FACTOR {F13.4}
 RHOB.K/M3                                                 :BULK DENSITY {F13.4}
 SPR1.                                                     :STC SLOWNESS PROJECTION, RECEIVER ARRAY - LOWER DIPOLE {AF13.4}
 TENS.LBF                                                  :CABLE TENSION {F13.4}
 VPVS.                                                     :COMPRESSIONAL TO SHEAR VELOSITY RATIO {F13.4}
~A         DEPT             BS           CALI           CHR1           CHR2           CHRP           CHRS           DRHO           DT1R            DT2           DT2R           DT4P           DT4S             GR            HD1            HD2            HD3           NPOR            PEF           RHOB           SPR1           TENS           VPVS
# ...
     2350.31280      311.10000      312.76970        0.93600        0.92870        0.87440        0.37500        7.02740      590.85030      567.71740      600.69560      299.90560      554.89790       88.52030      320.80850      302.40690      296.94710        0.41560        4.39120     2503.35060       48.07730     5928.00000        1.89300
     2350.46520      311.10000      312.28710        0.93600        0.92870        0.89960        0.35130       15.47810      590.85030      567.71740      600.69560      299.39400      559.70040       90.52200      319.70810      302.13170      297.02410        0.36470        4.91800     2481.96950       48.07730     5964.00000        1.89620
     2350.61760      311.10000      310.78500        0.95450        0.93010        0.89880        0.40760       20.82760      577.88210      543.91330      575.50870      299.54620      555.72300       91.19670      319.36990      303.74010      295.20720        0.37590        5.35950     2466.10250       47.89710     6011.00000        1.81580
     2350.77000      311.10000      311.24100        0.95670        0.93340        0.82460        0.43440       18.06530      573.52650      537.14640      569.01100      303.95570      560.13170       87.86050      322.10600      309.62330      292.65520        0.40570        5.71940     2446.58370       42.15910     5964.00000        1.76720
     2350.92240      311.10000      311.18820        0.95910        0.93850        0.85000        0.39850       25.17340      568.73880      534.54470      566.25510      304.57570      553.79980       84.96910      317.62860      306.79980      296.04640        0.38840        4.74750     2470.25710       42.80110     5961.00000        1.75500
     2351.07480      311.10000      312.65070        0.95630        0.95050        0.88880        0.47400       16.05010      560.73630      530.77000      562.25640      299.60790      549.04980       84.96170      319.11890      301.53930      302.30360        0.32910        4.07660     2470.81130       57.53180     5881.00000        1.77150
     2351.22720      311.10000      311.83470        0.96720        0.95600        0.88250        0.56150        6.04220      557.61930      524.97240      556.11480      299.25200      548.43220       78.17810      321.73140      302.43890      297.49410        0.29250        3.85950     2424.84060       63.07660     5899.00000        1.75430
     2351.37960      311.10000      309.93480        0.97250        0.96470        0.90480        0.59870       -3.27580      558.57560      523.60930      554.67080      299.00460      545.58830       69.28150      316.27640      287.27210      294.54880        0.34510        4.00890     2360.40820       61.61420     5926.00000        1.75120
     2351.53200      311.10000      309.37850        0.96880        0.98080        0.89230        0.61010       -5.81420      562.98550      523.76390      554.83470      302.67870      547.24050       59.44340      314.79820      298.36220      293.67570        0.37120        4.50750     2322.29690       68.24090     5840.00000        1.73040
     2351.68440      311.10000      309.10350        0.97090        0.98420        0.86580        0.66570       -2.21880      563.08390      524.31120      555.41440      311.32390      552.39670       55.65580      314.73480      304.47910      294.78400        0.38230        4.83240     2333.35130       70.89660     5941.00000        1.68410
     2351.83680      311.10000      309.12760        0.97160        0.98390        0.85070        0.69480        0.13350      553.79370      525.08310      556.23210      317.35170      559.11220       56.68640      314.86920      304.60360      294.86030        0.39170        5.31650     2334.00320       60.37780     5925.00000        1.65460
     2351.98920      311.10000      309.55700        0.96130        0.96390        0.88520        0.70210       -4.56380      529.20350      517.50120      548.20030      313.60820      554.18340       59.85210      315.72330      302.54620      294.27980        0.42760        4.58600     2295.14360       50.27890     5849.00000        1.65020
     2352.14160      311.10000      310.09250        0.96110        0.95190        0.00000        0.00000       -6.29730      518.95660      513.13040      543.57030      306.53790      568.24980       63.63960      314.55380      303.51240      291.80950        0.41190        4.24570     2246.82100       55.78860     5888.00000        1.67400
     2352.29400      311.10000      309.75660        0.95510        0.94850        0.00000        0.39690       -6.16590      480.09100      497.53700      527.44300      297.41640      533.02220       64.94450      314.84500      303.04080      285.14570        0.40220        3.86220     2216.00850       54.61530     5872.00000        1.67290
     2352.44640      311.10000      309.81600        0.96020        0.95940        0.66820        0.44430       -8.94590      483.39490      492.57890      522.18690      267.22070      509.88700       64.49960      315.11420      303.66310      288.98250        0.40480        3.91780     2231.03100       68.58290     5839.00000        1.84330
     2352.59880      311.10000      309.85160        0.96320        0.97100        0.73850        0.44230       -7.72400      497.47400      481.93370      510.90180      256.38990      488.10900       61.94190      316.36150      303.92870      289.90690        0.34900        4.11220     2298.05640       76.74410     5910.00000        1.87970
     2352.75120      311.10000      309.87540        0.97360        0.96110        0.71380        0.37640        0.85000      495.46090      474.46780      500.86330      253.88050      470.30980       56.15910      316.49610      304.78250      292.93320        0.22480        4.86470     2434.52200       76.37120     5878.00000        1.86890
     2352.90360      311.10000      311.57980        0.93750        0.96410        0.59390        0.27550        9.98490      515.14050      485.13580      514.29640      249.36750      474.20100       56.49270      316.56660      305.36570      293.72280        0.17780        5.16230     2499.70800       80.62660     5939.00000        1.94550
     2353.05600      311.10000      311.35970        0.93060        0.94150        0.53030        0.00000        6.13560      522.21530      494.78290      524.52330      252.66820      479.74430       61.16340      318.10980      304.51680      294.98660        0.26100        4.63270     2475.07130       78.00810     5993.00000        1.95820
     2353.20840      311.10000      312.35770        0.92960        0.94440        0.58500        0.00000        3.54030      534.03830      503.61220      533.88340      262.99340      489.78380       69.55580      320.09990      296.00780      294.55390        0.30930        4.27130     2399.87430       78.62160     5991.00000        1.91490
     2353.36080      311.10000      313.42420        0.95000        0.94340        0.78080        0.00000        9.93420      562.86030      548.59190      580.45910      291.45780      531.57480       78.78600      321.26890      299.48340      293.75820        0.30200        3.83840     2387.79170       66.48890     6122.00000        1.88220
     2353.51320      311.10000      314.09100        0.96390        0.96720        0.85110        0.00000       21.48450      611.92390      592.24370      625.98420      298.07880      526.78340       87.68260      322.00870      299.86560      291.51520        0.35920        3.94780     2422.30810       70.78780     6069.00000        1.98690
     2353.66560      311.10000      314.86390        0.97930        0.98770        0.91850        0.00000       18.25070      654.03670      615.93670      651.57800      306.23360      533.06480       94.52550      322.24440      299.37940      289.45170        0.39710        3.94540     2456.58230       58.43690     6049.00000        2.01130
     2353.81800      311.10000      315.55650        0.97040        0.97580        0.97340        0.00000       29.29670      641.27500      621.69060      657.66490      318.85180      548.39720       92.63500      319.52280      305.55270      292.41430        0.42250        4.30150     2496.81100       79.77940     6017.00000        1.94980
