~VERSION
 VERS.        2.0                                          :CWLS Log ASCII Standard - VERSION 2.0
 WRAP.        NO                                           :One Line per depth step
 PROD.        Schlumberger                                 :LAS Producer
 PROG.        DLIS to ASCII 2.2                            :LAS Program name and version
 CREA.        2006/03/10 09:49                          :LAS Creation date {YYYY/MM/DD hh  :mm}
SOURCE.       DSI_EMS_LDL_CNL_NGS_030PUP.DLIS              :DLIS File Name
FILE-ID.      DSI_EMS_LDL_CNL_NGS_030PUP                   :File Identification Number
#--------------------------------------------------
~WELL
#MNEM.UNIT      DATA             DESCRIPTION
#---- ------ --------------   -----------------------------
 STRT.M       2193.03600                                                                                     :START DEPTH
 STOP.M       3388.15680                                                                                     :STOP DEPTH
 STEP.M       0.15240                                                                                        :STEP
 NULL.        -999.25000                                                                                     :NULL VALUE
 COMP.        EXXONMOBIL CANADA PROPERTIES                                                                   :COMPANY
 WELL.        EXXONMOBIL ET AL ALMA 3                                                                        :WELL
  FLD.        ALMA                                                                                           :FIELD
  LOC.        Offshore Nova Scotia - Sable Island                                                            :LOCATION
 PROV.        NOVA SCOTIA                                                                                    :PROVINCE
 CTRY.        CANADA                                                                                         :COUNTRY
  UWI.        303N764340060300                                                                               :UNIQUE WELL ID
 DATE.        04-Mar-2006                                                                                    :LOG DATE {DD-MMM-YYYY}
 SRVC.        Schlumberger                                                                                   :SERVICE COMPANY
 LATI.DEG     43 35' 47.74" N                                                                                :LATITUDE
 LONG.DEG     60 41' 22.69" W                                                                                :LONGITUDE
#-----------------------------------------------------------------------------
~PARAMETER
#MNEM.UNIT    VALUE                                        :DESCRIPTION
#----.----    ---------------                              :-------------------
  RUN.        ONE                                          :RUN NUMBER
 PDAT.        LLWLT                                        :PERMANENT DATUM
  EPD.M       0.000000                                     :ELEVATION OF PERMANENT DATUM ABOVE MEAN SEA LEVEL
  EPD.M       0.000000                                     :ELEVATION OF TOOL ZERO ABOVE MEAN SEA LEVEL
  LMF.        ROTARY TABLE                                 :LOGGING MEASURED FROM (NAME OF LOGGING ELEVATION REFERENCE)
  APD.M       56.700001                                    :ELEVATION OF DEPTH REFERENCE (LMF) ABOVE PERMANENT DATUM
~CURVE
#MNEM.UNIT    VALUE                                        :DESCRIPTION
#----.----    ---------------                              :-------------------
 DEPT.M       00 001 00 00                                 :Depth Index
   BS.MM                                                   :BIT SIZE {F13.4}
 CALI.MM                                                   :CALIPER {F13.4}
 CHR1.                                                     :LABEL PEAK COHERENCE, RECEIVER ARRAY - LOWER DIPOLE {F13.4}
 CHR2.                                                     :LABEL PEAK COHERENCE, RECEIVER ARRAY - UPPER DIPOLE {F13.4}
 CHRP.                                                     :LABEL PEAK COHERENCE, RECEIVER ARRAY, COMPRESSIONAL - MONOPOLE P&S {F13.4}
 CHRS.                                                     :LABEL PEAK COHERENCE, RECEIVER ARRAY, SHEAR - MONOPOLE P&S {F13.4}
 DRHO.K/M3                                                 :BULK DENSITY CORRECTION {F13.4}
 DT1R.US/M                                                 :DELTA-T SHEAR, RECEIVER ARRAY - LOWER DIPOLE {F13.4}
  DT2.US/M                                                 :DELTA-T SHEAR - UPPER DIPOLE {F13.4}
 DT2R.US/M                                                 :DELTA-T SHEAR, RECEIVER ARRAY - UPPER DIPOLE {F13.4}
 DT4P.US/M                                                 :DELTA-T COMPRESSIONAL - MONOPOLE P&S {F13.4}
 DT4S.US/M                                                 :DELTA-T SHEAR - MONOPOLE P&S {F13.4}
   GR.GAPI                                                 :GAMMA RAY {F13.4}
  HD1.MM                                                   :HOLE DIAMETER 1 {F13.4}
  HD2.MM                                                   :HOLE DIAMETER 2 {F13.4}
  HD3.MM                                                   :HOLE DIAMETER 3 {F13.4}
 NPOR.V/V                                                  :ENHANCED THERMAL NEUTRON POROSITY {F13.4}
  PEF.                                                     :PHOTOELECTRIC FACTOR {F13.4}
 RHOB.K/M3                                                 :BULK DENSITY {F13.4}
 SPR1.                                                     :STC SLOWNESS PROJECTION, RECEIVER ARRAY - LOWER DIPOLE {AF13.4}
 TENS.LBF                                                  :CABLE TENSION {F13.4}
 VPVS.                                                     :COMPRESSIONAL TO SHEAR VELOSITY RATIO {F13.4}
~A         DEPT             BS           CALI           CHR1           CHR2           CHRP           CHRS           DRHO           DT1R            DT2           DT2R           DT4P           DT4S             GR            HD1            HD2            HD3           NPOR            PEF           RHOB           SPR1           TENS           VPVS
# ...
     3228.13680      311.10000      314.32260        0.96890        0.97520        0.93340        0.69360       -6.84210      569.05470      531.49520      563.02470      280.12220      502.23480       70.78680      321.78320      311.58020      307.65600        0.33490        4.03680     2598.66530       44.48240     7340.00000        1.89740
     3228.28920      311.10000      314.37610        0.97310        0.96960        0.95250        0.71710       -5.79730      575.66070      530.64790      563.67960      281.74700      511.32880       75.22770      321.36980      311.66400      307.47990        0.34220        4.08950     2603.56880       49.82770     7327.00000        1.88340
     3228.44160      311.10000      313.66880        0.97300        0.97020        0.94400        0.67780       -1.25150      577.01950      532.85450      564.46450      284.11850      519.69580       74.38990      320.22890      311.40790      307.61030        0.37420        4.25040     2611.78610       37.83780     7238.00000        1.87550
     3228.59400      311.10000      313.19330        0.97190        0.96900        0.94700        0.71380        1.22900      578.09190      533.03180      564.65230      284.34140      521.46310       78.87520      320.09310      312.16710      307.74080        0.35640        4.23750     2602.61600       46.46770     7346.00000        1.87460
     3228.74640      311.10000      313.83070        0.96980        0.96770        0.94110        0.72590        3.12200      575.05380      531.84730      563.39750      285.64280      524.74910       77.99300      319.87840      312.58160      308.70260        0.36270        4.14530     2589.92290       49.61130     7311.00000        1.86190
     3228.89880      311.10000      314.13810        0.96900        0.96770        0.94230        0.69470        4.02400      576.96810      532.67470      564.27400      285.96740      525.78130       78.11900      321.07610      312.79150      308.91370        0.35880        4.20680     2581.15600       49.82170     7409.00000        1.86270
     3229.05120      311.10000      314.07860        0.96870        0.96600        0.94600        0.69450        5.15060      577.67250      533.05620      564.67810      288.77060      530.41270       79.63890      321.72780      312.63200      308.77930        0.35350        4.34690     2578.50730       52.73200     7422.00000        1.84600
     3229.20360      311.10000      313.49730        0.96880        0.96540        0.94100        0.69620        4.47730      577.11150      533.13130      564.75780      289.04260      534.37240       79.33490      320.23080      313.46580      308.05130        0.34670        4.15790     2576.65600       55.06660     7388.00000        1.84450
     3229.35600      311.10000      313.54320        0.96730        0.96330        0.93700        0.75350        3.56330      573.33380      532.08420      563.64860      287.03360      525.44700       83.60520      320.09950      312.45600      307.53000        0.34140        3.90230     2585.66530       52.17170     7424.00000        1.85370
     3229.50840      311.10000      314.00660        0.96340        0.96310        0.94540        0.74800        2.24970      570.35680      529.90120      561.33610      287.25810      524.45860       79.71300      319.92460      312.79600      307.61030        0.35420        3.81000     2592.83110       57.51090     7404.00000        1.84470
     3229.66080      311.10000      312.79220        0.96440        0.96100        0.95980        0.74290        6.53790      571.45060      528.88860      560.26330      285.27040      522.82580       82.12990      320.09950      312.58160      307.66030        0.37180        4.14840     2606.19580       64.21040     7328.00000        1.85400
     3229.81320      311.10000      313.13390        0.96720        0.95960        0.95540        0.71360        5.85890      562.80360      524.49900      555.61340      281.74330      513.06680       77.14780      320.31890      313.42440      308.78340        0.38020        4.18830     2598.87500       61.23100     7367.00000        1.86160
     3229.96560      311.10000      313.54320        0.96530        0.95800        0.92340        0.74340        4.47210      560.35550      521.55100      552.49040      279.13970      509.57640       76.19890      320.69890      312.91720      309.15760        0.34360        4.05190     2598.01250       65.84620     7348.00000        1.86840
     3230.11800      311.10000      314.26380        0.96670        0.94620        0.89720        0.68590        6.50080      559.98900      516.37840      547.01100      275.67950      498.29220       73.41870      321.26470      312.86670      308.16450        0.35480        3.86120     2605.95090       61.33360     7352.00000        1.87310
     3230.27040      311.10000      313.26680        0.96890        0.95890        0.88200        0.68650        8.19650      555.94090      512.28310      542.67280      275.56680      494.10370       72.11390      321.29160      312.50190      308.24070        0.31130        3.83590     2616.96190       64.58480     7353.00000        1.85900
     3230.42280      311.10000      313.78770        0.97050        0.96190        0.90590        0.72470        6.28610      556.88350      512.24190      542.62910      274.32310      487.09800       68.91110      321.19090      312.67020      308.11040        0.30410        3.88400     2614.82960       66.25740     7355.00000        1.86730
     3230.57520      311.10000      314.07860        0.97120        0.96350        0.93000        0.71820        1.40690      558.21910      512.43420      542.83280      270.96620      492.43330       64.88540      320.98570      312.45600      308.16020        0.30790        3.80170     2599.97490       76.53860     7346.00000        1.89110
     3230.72760      311.10000      314.13810        0.97270        0.96220        0.91970        0.74140        1.92590      556.33780      508.65220      539.22640      275.89860      495.13530       64.66300      320.05600      312.67020      308.24070        0.33040        3.99450     2592.98830       63.64920     7355.00000        1.84360
     3230.88000      311.10000      312.90350        0.97150        0.96320        0.92980        0.67920        1.57450      556.80040      506.95610      537.42830      276.78730      495.26510       72.49200      321.18120      312.48970      308.63190        0.34180        4.13050     2582.82450       59.66180     7241.00000        1.83160
     3231.03240      311.10000      313.54320        0.96000        0.96460        0.92310        0.69220        0.15490      557.41440      506.38480      536.82260      275.92290      494.99410       78.42300      321.36510      312.67020      308.37550        0.31680        4.08390     2581.26590       70.30410     7323.00000        1.83520
     3231.18480      311.10000      314.27670        0.97490        0.96690        0.91330        0.67270        1.32500      554.72080      508.05000      538.58800      275.64970      496.22210       82.31520      321.32230      312.66570      308.24070        0.35620        4.11310     2585.79660       67.75290     7330.00000        1.84310
     3231.33720      311.10000      314.49510        0.97410        0.96800        0.92810        0.68900        2.21310      554.60520      511.82270      543.68250      276.12930      499.53060       77.85960      321.01160      311.60950      306.85590        0.36000        4.17680     2587.57350       52.02210     7263.00000        1.85360
     3231.48960      311.10000      314.14430        0.97670        0.95920        0.92170        0.68140        1.88950      557.35220      521.51970      552.45730      276.02560      499.40950       74.89400      321.04320      312.00320      307.03260        0.36930        4.29660     2580.86210       57.19710     7312.00000        1.88940
     3231.64200      311.10000      313.78770        0.97950        0.97490        0.91180        0.65020        0.57420      560.14140      525.23020      556.38790      276.03550      501.62950       71.93590      321.20060      312.67020      306.93610        0.33660        4.25770     2580.92020       56.22360     7245.00000        1.90280
