~VERSION
 VERS.        2.0                                          :CWLS Log ASCII Standard - VERSION 2.0
 WRAP.        NO                                           :One Line per depth step
 PROD.        Schlumberger                                 :LAS Producer
 PROG.        DLIS to ASCII 2.2                            :LAS Program name and version
 CREA.        2006/03/10 09:49                          :LAS Creation date {YYYY/MM/DD hh  :mm}
SOURCE.       DSI_EMS_LDL_CNL_NGS_030PUP.DLIS              :DLIS File Name
FILE-ID.      DSI_EMS_LDL_CNL_NGS_030PUP                   :File Identification Number
#--------------------------------------------------
~WELL
#MNEM.UNIT      DATA             DESCRIPTION
#---- ------ --------------   -----------------------------
 STRT.M       2193.03600                                                                                     :START DEPTH
 STOP.M       3388.15680                                                                                     :STOP DEPTH
 STEP.M       0.15240                                                                                        :STEP
 NULL.        -999.25000                                                                                     :NULL VALUE
 COMP.        EXXONMOBIL CANADA PROPERTIES                                                                   :COMPANY
 WELL.        EXXONMOBIL ET AL ALMA 3                                                                        :WELL
  FLD.        ALMA                                                                                           :FIELD
  LOC.        Offshore Nova Scotia - Sable Island                                                            :LOCATION
 PROV.        NOVA SCOTIA                                                                                    :PROVINCE
 CTRY.        CANADA                                                                                         :COUNTRY
  UWI.        303N764340060300                                                                               :UNIQUE WELL ID
 DATE.        04-Mar-2006                                                                                    :LOG DATE {DD-MMM-YYYY}
 SRVC.        Schlumberger                                                                                   :SERVICE COMPANY
 LATI.DEG     43 35' 47.74" N                                                                                :LATITUDE
 LONG.DEG     60 41' 22.69" W                                                                                :LONGITUDE
#-----------------------------------------------------------------------------
~PARAMETER
#MNEM.UNIT    VALUE                                        :DESCRIPTION
#----.----    ---------------                              :-------------------
  RUN.        ONE                                          :RUN NUMBER
 PDAT.        LLWLT                                        :PERMANENT DATUM
  EPD.M       0.000000                                     :ELEVATION OF PERMANENT DATUM ABOVE MEAN SEA LEVEL
  EPD.M       0.000000                                     :ELEVATION OF TOOL ZERO ABOVE MEAN SEA LEVEL
  LMF.        ROTARY TABLE                                 :LOGGING MEASURED FROM (NAME OF LOGGING ELEVATION REFERENCE)
  APD.M       56.700001                                    :ELEVATION OF DEPTH REFERENCE (LMF) ABOVE PERMANENT DATUM
~CURVE
#MNEM.UNIT    VALUE                                        :DESCRIPTION
#----.----    ---------------                              :-------------------
 DEPT.M       00 001 00 00                                 :Depth Index
   BS.MM                                                   :BIT SIZE {F13.4}
 CALI.MM                                                   :CALIPER {F13.4}
 CHR1.                                                     :LABEL PEAK COHERENCE, RECEIVER ARRAY - LOWER DIPOLE {F13.4}
 CHR2.                                                     :LABEL PEAK COHERENCE, RECEIVER ARRAY - UPPER DIPOLE {F13.4}
 CHRP.                                                     :LABEL PEAK COHERENCE, RECEIVER ARRAY, COMPRESSIONAL - MONOPOLE P&S {F13.4}
 CHRS.                                                     :LABEL PEAK COHERENCE, RECEIVER ARRAY, SHEAR - MONOPOLE P&S {F13.4}
 DRHO.K/M3                                                 :BULK DENSITY CORRECTION {F13.4}
 DT1R.US/M                                                 :DELTA-T SHEAR, RECEIVER ARRAY - LOWER DIPOLE {F13.4}
  DT2.US/M                                                 :DELTA-T SHEAR - UPPER DIPOLE {F13.4}
 DT2R.US/M                                                 :DELTA-T SHEAR, RECEIVER ARRAY - UPPER DIPOLE {F13.4}
 DT4P.US/M                                                 :DELTA-T COMPRESSIONAL - MONOPOLE P&S {F13.4}
 DT4S.US/M                                                 :DELTA-T SHEAR - MONOPOLE P&S {F13.4}
   GR.GAPI                                                 :GAMMA RAY {F13.4}
  HD1.MM                                                   :HOLE DIAMETER 1 {F13.4}
  HD2.MM                                                   :HOLE DIAMETER 2 {F13.4}
  HD3.MM                                                   :HOLE DIAMETER 3 {F13.4}
 NPOR.V/V                                                  :ENHANCED THERMAL NEUTRON POROSITY {F13.4}
  PEF.                                                     :PHOTOELECTRIC FACTOR {F13.4}
 RHOB.K/M3                                                 :BULK DENSITY {F13.4}
 SPR1.                                                     :STC SLOWNESS PROJECTION, RECEIVER ARRAY - LOWER DIPOLE {AF13.4}
 TENS.LBF                                                  :CABLE TENSION {F13.4}
 VPVS.                                                     :COMPRESSIONAL TO SHEAR VELOSITY RATIO {F13.4}
~A         DEPT             BS           CALI           CHR1           CHR2           CHRP           CHRS           DRHO           DT1R            DT2           DT2R           DT4P           DT4S             GR            HD1            HD2            HD3           NPOR            PEF           RHOB           SPR1           TENS           VPVS
# ...
     3067.20240      311.10000      313.28720        0.95160        0.95830        0.74840        0.36550       16.63650      589.44440      557.11330      589.47560      264.32980      507.48430       60.37790      320.23500      314.05860      310.38190        0.29290        4.85420     2671.38430       73.38060     6912.00000        2.10760
     3067.35480      311.10000      313.91290        0.96180        0.96780        0.73690        0.37310       38.82180      600.25520      567.07930      600.02040      269.01910      529.16090       71.05370      320.31380      306.31280      310.92950        0.37780        4.88230     2645.07230       76.01200     6981.00000        2.10800
     3067.50720      311.10000      314.85200        0.96540        0.97620        0.75190        0.00000       65.23910      610.68520      579.06390      613.41520      284.28170      549.09600       79.71300      323.81700      312.49510      308.61890        0.42600        4.92890     2612.68430       78.73600     6981.00000        2.03690
     3067.65960      311.10000      315.17970        0.97670        0.96690        0.80820        0.00000       87.37950      634.82820      601.81380      637.51460      294.09620      568.02570       88.98030      327.32080      312.54510      309.62660        0.39370        5.09420     2601.52340       81.76740     6992.00000        2.04630
     3067.81200      311.10000      316.64410        0.98320        0.98060        0.91870        0.00000       99.21400      640.35450      602.55890      638.30400      300.46130      553.07610       88.74300      328.27090      312.62510      310.84840        0.42670        5.17870     2619.14670       48.69830     7014.00000        2.00540
     3067.96440      311.10000      318.67490        0.98190        0.97770        0.93910        0.00000       97.89840      641.20990      605.99110      641.05690      302.92580      559.71280       88.38720      330.39280      313.40490      310.59230        0.37750        5.36620     2636.19090       83.55900     6934.00000        2.00050
     3068.11680      311.10000      318.03840        0.97910        0.96870        0.94840        0.00000       73.65730      642.38040      606.44620      641.53830      305.88600      568.73430       88.96550      328.10490      311.75600      311.84560        0.41080        5.35090     2627.69680       79.05160     6925.00000        1.98260
     3068.26920      311.10000      315.51600        0.97700        0.96140        0.95210        0.00000       46.56260      636.65920      595.66310      630.99900      306.63820      571.37080       92.52410      323.55020      311.65960      309.50060        0.39370        5.25300     2610.58690       65.35280     6948.00000        1.94260
     3068.42160      311.10000      315.27850        0.98000        0.96470        0.94880        0.67990       27.38460      633.61890      580.69130      615.13900      306.72210      583.17340       93.71030      322.50480      311.78980      309.50060        0.36990        4.77570     2599.86840       45.27540     6899.00000        1.89320
     3068.57400      311.10000      315.11610        0.97560        0.96760        0.92750        0.67280       12.19000      630.58440      575.63210      609.77970      307.22770      582.75220       91.35270      322.24210      311.78980      308.32650        0.38970        4.59390     2596.25340       32.94490     7002.00000        1.87360
     3068.72640      311.10000      315.39730        0.96720        0.94780        0.90630        0.00000        7.95180      613.01530      550.40060      583.85550      307.92280      581.87050       84.70990      322.31590      312.54000      309.61310        0.38660        4.75120     2610.14920       36.05380     6988.00000        1.78750
     3068.87880      311.10000      315.67850        0.95570        0.94420        0.93510        0.65580        8.38010      596.96300      530.00070      562.99210      308.53040      578.24190       88.50580      322.54740      311.57580      309.92310        0.37750        4.40700     2613.70900       38.03680     6918.00000        1.71780
     3069.03120      311.10000      315.33790        0.94800        0.94310        0.93300        0.64980        7.50570      583.35660      527.71840      560.56770      305.60770      571.89110       86.94890      322.93370      312.61540      309.43580        0.41960        4.45630     2618.63480       41.93310     7006.00000        1.72680
     3069.18360      311.10000      315.74220        0.94770        0.94250        0.93080        0.64320        7.36850      582.50020      527.24140      560.06100      303.02740      578.83420       92.28680      322.37240      309.44900      308.87990        0.40290        4.12450     2609.55490       43.55400     6957.00000        1.73990
     3069.33600      311.10000      315.11070        0.94710        0.94190        0.92540        0.63180       14.05920      579.90190      526.40770      559.17540      296.74880      577.20870       87.77920      324.56070      311.02340      309.62520        0.39020        4.45660     2612.45090       42.30900     6980.00000        1.77390
     3069.48840      311.10000      315.69420        0.94720        0.94220        0.92580        0.63220       17.95060      579.97430      526.29690      559.05770      295.49290      567.28920       84.77670      324.77650      311.65960      309.71100        0.40680        4.77770     2615.52730       43.37070     7032.00000        1.78110
     3069.64080      311.10000      315.55100        0.94680        0.94100        0.91250        0.60750       25.50020      579.27140      524.96040      557.63790      298.06160      575.85250       80.74360      327.05250      312.45600      308.87990        0.34700        5.45370     2624.58080       42.67060     6959.00000        1.76120
     3069.79320      311.10000      314.15650        0.94480        0.93950        0.89400        0.58920       38.08790      574.15660      524.02280      555.10880      299.10250      577.66540       80.86220      323.72530      312.54000      308.17740        0.37290        5.23610     2651.92480       44.14210     6961.00000        1.75200
     3069.94560      311.10000      313.90120        0.94480        0.93950        0.88390        0.58160       32.94880      574.09260      523.83400      554.90890      299.13880      574.09690       83.03440      321.18400      312.58620      308.48830        0.38660        4.67880     2653.75730       43.81640     6961.00000        1.75110
     3070.09800      311.10000      313.67540        0.94360        0.93640        0.82990        0.55160       26.46760      570.29560      509.10290      539.70410      295.81080      564.96600       89.90700      321.01430      312.67020      308.43850        0.42680        4.29510     2641.50070       44.94770     6917.00000        1.72100
     3070.25040      311.10000      313.52660        0.92970        0.92610        0.78510        0.51950       27.36690      558.08690      493.54460      523.21060      285.94230      549.24660       91.09320      322.55690      309.90040      308.69960        0.43390        4.35560     2633.47310       43.92150     6961.00000        1.72600
     3070.40280      311.10000      313.31920        0.94600        0.94860        0.86330        0.72380       15.32980      517.20210      458.77900      484.30160      276.06810      522.38070       88.95800      322.66600      309.93330      308.83020        0.37010        4.51480     2637.82520       44.31900     6939.00000        1.66180
     3070.55520      311.10000      313.19330        0.95600        0.95900        0.92820        0.77380       24.15010      487.59160      452.68470      477.86840      271.47140      506.99150       77.57790      320.77650      309.93330      309.35220        0.29360        4.99970     2690.51390       46.04710     6934.00000        1.66750
     3070.70760      311.10000      312.60660        0.96790        0.96660        0.96260        0.78370       22.14770      487.21000      451.29310      474.09710      265.03910      493.83650       70.93510      320.13110      309.97570      308.74930        0.28140        4.81370     2696.72610       45.28760     6998.00000        1.70270
