~VERSION
 VERS.        2.0                                          :CWLS Log ASCII Standard - VERSION 2.0
 WRAP.        NO                                           :One Line per depth step
 PROD.        Schlumberger                                 :LAS Producer
 PROG.        DLIS to ASCII 2.2                            :LAS Program name and version
 CREA.        2006/03/10 09:49                          :LAS Creation date {YYYY/MM/DD hh  :mm}
SOURCE.       DSI_EMS_LDL_CNL_NGS_030PUP.DLIS              :DLIS File Name
FILE-ID.      DSI_EMS_LDL_CNL_NGS_030PUP                   :File Identification Number
#--------------------------------------------------
~WELL
#MNEM.UNIT      DATA             DESCRIPTION
#---- ------ --------------   -----------------------------
 STRT.M       2193.03600                                                                                     :START DEPTH
 STOP.M       3388.15680                                                                                     :STOP DEPTH
 STEP.M       0.15240                                                                                        :STEP
 NULL.        -999.25000                                                                                     :NULL VALUE
 COMP.        EXXONMOBIL CANADA PROPERTIES                                                                   :COMPANY
 WELL.        EXXONMOBIL ET AL ALMA 3                                                                        :WELL
  FLD.        ALMA                                                                                           :FIELD
  LOC.        Offshore Nova Scotia - Sable Island                                                            :LOCATION
 PROV.        NOVA SCOTIA                                                                                    :PROVINCE
 CTRY.        CANADA                                                                                         :COUNTRY
  UWI.        303N764340060300                                                                               :UNIQUE WELL ID
 DATE.        04-Mar-2006                                                                                    :LOG DATE {DD-MMM-YYYY}
 SRVC.        Schlumberger                                                                                   :SERVICE COMPANY
 LATI.DEG     43 35' 47.74" N                                                                                :LATITUDE
 LONG.DEG     60 41' 22.69" W                                                                                :LONGITUDE
#-----------------------------------------------------------------------------
~PARAMETER
#MNEM.UNIT    VALUE                                        :DESCRIPTION
#----.----    ---------------                              :-------------------
  RUN.        ONE                                          :RUN NUMBER
 PDAT.        LLWLT                                        :PERMANENT DATUM
  EPD.M       0.000000                                     :ELEVATION OF PERMANENT DATUM ABOVE MEAN SEA LEVEL
  EPD.M       0.000000                                     :ELEVATION OF TOOL ZERO ABOVE MEAN SEA LEVEL
  LMF.        ROTARY TABLE                                 :LOGGING MEASURED FROM (NAME OF LOGGING ELEVATION REFERENCE)
  APD.M       56.700001                                    :ELEVATION OF DEPTH REFERENCE (LMF) ABOVE PERMANENT DATUM
~CURVE
#MNEM.UNIT    VALUE                                        :DESCRIPTION
#----.----    ---------------                              :-------------------
 DEPT.M       00 001 00 00                                 :Depth Index
   BS.MM                                                   :BIT SIZE {F13.4}
 CALI.MM                                                   :CALIPER {F13.4}
 CHR1.                                                     :LABEL PEAK COHERENCE, RECEIVER ARRAY - LOWER DIPOLE {F13.4}
 CHR2.                                                     :LABEL PEAK COHERENCE, RECEIVER ARRAY - UPPER DIPOLE {F13.4}
 CHRP.                                                     :LABEL PEAK COHERENCE, RECEIVER ARRAY, COMPRESSIONAL - MONOPOLE P&S {F13.4}
 CHRS.                                                     :LABEL PEAK COHERENCE, RECEIVER ARRAY, SHEAR - MONOPOLE P&S {F13.4}
 DRHO.K/M3                                                 :BULK DENSITY CORRECTION {F13.4}
 DT1R.US/M                                                 :DELTA-T SHEAR, RECEIVER ARRAY - LOWER DIPOLE {F13.4}
  DT2.US/M                                                 :DELTA-T SHEAR - UPPER DIPOLE {F13.4}
 DT2R.US/M                                                 :DELTA-T SHEAR, RECEIVER ARRAY - UPPER DIPOLE {F13.4}
 DT4P.US/M                                                 :DELTA-T COMPRESSIONAL - MONOPOLE P&S {F13.4}
 DT4S.US/M                                                 :DELTA-T SHEAR - MONOPOLE P&S {F13.4}
   GR.GAPI                                                 :GAMMA RAY {F13.4}
  HD1.MM                                                   :HOLE DIAMETER 1 {F13.4}
  HD2.MM                                                   :HOLE DIAMETER 2 {F13.4}
  HD3.MM                                                   :HOLE DIAMETER 3 {F13.4}
 NPOR.V/V                                                  :ENHANCED THERMAL NEUTRON POROSITY {F13.4}
  PEF.                                                     :PHOTOELECTRIC FACTOR {F13.4}
 RHOB.K/M3                                                 :BULK DENSITY {F13.4}
 SPR1.                                                     :STC SLOWNESS PROJECTION, RECEIVER ARRAY - LOWER DIPOLE {AF13.4}
 TENS.LBF                                                  :CABLE TENSION {F13.4}
 VPVS.                                                     :COMPRESSIONAL TO SHEAR VELOSITY RATIO {F13.4}
~A         DEPT             BS           CALI           CHR1           CHR2           CHRP           CHRS           DRHO           DT1R            DT2           DT2R           DT4P           DT4S             GR            HD1            HD2            HD3           NPOR            PEF           RHOB           SPR1           TENS           VPVS
# ...
     2591.71440      311.10000      315.02110        0.96590        0.95770        0.92850        0.59740       20.10850      654.20290      609.78270      645.06790      314.00390      586.73630       91.52300      320.45970      309.75740      298.87410        0.42920        4.71160     2476.32500       21.68360     6332.00000        1.94200
     2591.86680      311.10000      314.09580        0.96040        0.95620        0.92770        0.58890       13.14430      647.10750      604.07150      638.48580      312.13840      585.00860       87.92520      320.05020      307.54630      299.15990        0.44260        4.67930     2468.57250       36.08610     6271.00000        1.93530
     2592.01920      311.10000      314.32850        0.95820        0.95830        0.95070        0.49050        3.96510      637.43790      581.87740      616.39560      312.75750      585.43240       87.48030      319.52510      307.54630      299.21370        0.42010        5.03270     2469.05930       22.27440     6273.00000        1.86050
     2592.17160      311.10000      314.19560        0.95660        0.95910        0.93730        0.44530        1.54010      636.94550      581.10710      614.21320      312.57570      585.66830       85.47860      319.88070      307.52260      300.08020        0.40030        4.63870     2470.31270       33.14790     6249.00000        1.85910
     2592.32400      311.10000      313.37850        0.97060        0.96060        0.91790        0.00000       -1.92790      604.08270      580.21860      613.27400      312.88300      575.64620       84.85060      318.68050      307.57550      300.60580        0.40280        4.20210     2483.10910       35.09330     6233.00000        1.85440
     2592.47640      311.10000      313.17980        0.97160        0.96250        0.90420        0.00000       -2.02300      602.62660      582.46840      615.65210      314.00630      566.67250       86.40750      319.13470      307.70720      301.26250        0.39390        3.93980     2480.77390       40.07820     6239.00000        1.85500
     2592.62880      311.10000      312.58050        0.97150        0.96390        0.91840        0.00000       -2.40660      600.65770      582.99710      616.21090      319.93650      570.82340       88.74290      319.40940      306.59570      301.13110        0.41250        4.06630     2477.02440       45.80560     6203.00000        1.82220
     2592.78120      311.10000      311.87230        0.96730        0.96460        0.86180        0.37020        0.14440      596.97670      581.28360      614.39970      314.42220      574.97440       88.63820      319.09530      309.28050      301.05820        0.47690        4.58530     2473.39650       40.21990     6199.00000        1.84870
     2592.93360      311.10000      311.52040        0.94990        0.94830        0.77410        0.37080       -4.72540      586.81520      567.45540      600.41840      304.54820      546.77880       85.63560      320.00550      306.07540      301.53030        0.52680        5.40790     2521.51340       33.14260     6282.00000        1.86330
     2593.08600      311.10000      310.94790        0.94190        0.93930        0.79970        0.47310       -1.08870      570.38850      551.24150      583.26260      296.86980      546.33250       80.74250      321.47670      306.45740      301.52510        0.50610        7.32140     2643.74880       31.87450     6315.00000        1.85680
     2593.23840      311.10000      310.09350        0.94420        0.94180        0.81450        0.60190        8.29090      562.18410      534.73800      566.45980      287.75870      531.35050       70.06010      317.73050      307.17140      301.90200        0.46610        8.28550     2784.10820       44.68560     6313.00000        1.85830
     2593.39080      311.10000      311.00350        0.95720        0.94820        0.85350        0.67670       11.67880      550.70410      503.00050      533.23490      279.29190      524.18570       62.25600      316.20920      308.61690      300.64520        0.38790        8.29520     2820.17940       31.91160     6358.00000        1.80100
     2593.54320      311.10000      311.07680        0.95720        0.94820        0.90240        0.67800        1.19980      550.70410      503.00050      533.23490      277.18330      513.91460       59.47580      317.62410      307.52260      301.24750        0.38590        6.40660     2689.06030       31.91160     6238.00000        1.81470
     2593.69560      311.10000      311.02110        0.97800        0.95530        0.94280        0.66380        1.92550      556.47360      534.18700      565.87610      274.95250      499.72380       67.14910      318.56440      307.39760      301.90200        0.35360        5.30520     2588.02050       28.90300     6315.00000        1.94280
     2593.84800      311.10000      311.52240        0.97410        0.94900        0.88330        0.66520        3.89910      554.91720      529.03390      560.41730      278.30550      500.08280       70.94980      318.42340      308.08210      301.90200        0.34940        4.08300     2517.70970       31.39020     6283.00000        1.90090
     2594.00040      311.10000      311.53790        0.97050        0.94930        0.89090        0.62380        3.87020      553.36930      526.93760      558.19660      280.63810      499.81800       76.15030      318.62550      307.95710      301.90200        0.34250        3.79310     2494.54220       34.52520     6273.00000        1.87760
     2594.15280      311.10000      311.68940        0.96920        0.94980        0.89810        0.60470        3.84030      550.89120      525.69050      556.87550      281.65890      510.81990       73.14770      318.75110      307.82540      301.90200        0.32650        3.66540     2490.52080       36.56380     6282.00000        1.86640
     2594.30520      311.10000      311.22290        0.96950        0.94980        0.89230        0.58550        0.33240      544.40970      525.33040      556.49410      280.52520      524.57500       73.14770      319.92980      307.95040      302.02360        0.34060        3.77410     2496.39160       32.17530     6317.00000        1.87270
     2594.45760      311.10000      311.56170        0.97080        0.95220        0.89390        0.60300       -0.03740      540.91190      525.04180      556.18840      278.34820      518.61020       72.50670      318.75110      307.45060      302.77580        0.33730        3.80920     2526.43850       34.34150     6286.00000        1.88630
     2594.61000      311.10000      310.42700        0.97780        0.95280        0.89360        0.62750        5.31740      551.56410      529.37600      560.77970      278.73920      519.06070       72.61790      317.42670      308.24730      301.85900        0.35040        3.91200     2556.65230       31.77780     6356.00000        1.89920
     2594.76240      311.10000      311.52040        0.97910        0.95310        0.89280        0.62700        4.14110      556.09080      530.48680      561.95640      282.40000      518.43850       75.41110      317.55210      306.07540      301.19860        0.35760        4.00500     2546.95580       43.06860     6358.00000        1.87850
     2594.91480      311.10000      311.07680        0.97890        0.95270        0.88280        0.67990        0.73110      557.09440      528.10220      559.43030      279.29460      519.67520       74.18790      319.35530      306.68130      301.78040        0.37040        4.01180     2514.32230       34.66570     6361.00000        1.89080
     2595.06720      311.10000      311.18820        0.97880        0.95130        0.89060        0.71650       -3.52100      557.75010      529.86090      561.29330      288.15070      522.90190       79.19220      318.67140      307.11850      300.91200        0.38370        4.02960     2489.08110       35.60910     6391.00000        1.83880
     2595.21960      311.10000      311.06290        0.97600        0.95330        0.85260        0.61650        0.42670      557.62790      558.68040      591.13360      286.18510      525.15300       82.43680      318.81950      307.50000      301.44020        0.37880        3.97390     2493.23540       29.69490     6402.00000        1.95220
