~VERSION
 VERS.        2.0                                          :CWLS Log ASCII Standard - VERSION 2.0
 WRAP.        NO                                           :One Line per depth step
 PROD.        Schlumberger                                 :LAS Producer
 PROG.        DLIS to ASCII 2.2                            :LAS Program name and version
 CREA.        2006/03/10 09:49                          :LAS Creation date {YYYY/MM/DD hh  :mm}
SOURCE.       DSI_EMS_LDL_CNL_NGS_030PUP.DLIS              :DLIS File Name
FILE-ID.      DSI_EMS_LDL_CNL_NGS_030PUP                   :File Identification Number
#--------------------------------------------------
~WELL
#MNEM.UNIT      DATA             DESCRIPTION
#---- ------ --------------   -----------------------------
 STRT.M       2193.03600                                                                                     :START DEPTH
 STOP.M       3388.15680                                                                                     :STOP DEPTH
 STEP.M       0.15240                                                                                        :STEP
 NULL.        -999.25000                                                                                     :NULL VALUE
 COMP.        EXXONMOBIL CANADA PROPERTIES                                                                   :COMPANY
 WELL.        EXXONMOBIL ET AL ALMA 3                                                                        :WELL
  FLD.        ALMA                                                                                           :FIELD
  LOC.        Offshore Nova Scotia - Sable Island                                                            :LOCATION
 PROV.        NOVA SCOTIA                                                                                    :PROVINCE
 CTRY.        CANADA                                                                                         :COUNTRY
  UWI.        303N764340060300                                                                               :UNIQUE WELL ID
 DATE.        04-Mar-2006                                                                                    :LOG DATE {DD-MMM-YYYY}
 SRVC.        Schlumberger                                                                                   :SERVICE COMPANY
 LATI.DEG     43 35' 47.74" N                                                                                :LATITUDE
 LONG.DEG     60 41' 22.69" W                                                                                :LONGITUDE
#-----------------------------------------------------------------------------
~PARAMETER
#MNEM.UNIT    VALUE                                        :DESCRIPTION
#----.----    ---------------                              :-------------------
  RUN.        ONE                                          :RUN NUMBER
 PDAT.        LLWLT                                        :PERMANENT DATUM
  EPD.M       0.000000                                     :ELEVATION OF PERMANENT DATUM ABOVE MEAN SEA LEVEL
  EPD.M       0.000000                                     :ELEVATION OF TOOL ZERO ABOVE MEAN SEA LEVEL
  LMF.        ROTARY TABLE                                 :LOGGING MEASURED FROM (NAME OF LOGGING ELEVATION REFERENCE)
  APD.M       56.700001                                    :ELEVATION OF DEPTH REFERENCE (LMF) ABOVE PERMANENT DATUM
~CURVE
#MNEM.UNIT    VALUE                                        :DESCRIPTION
#----.----    ---------------                              :-------------------
 DEPT.M       00 001 00 00                                 :Depth Index
   BS.MM                                                   :BIT SIZE {F13.4}
 CALI.MM                                                   :CALIPER {F13.4}
 CHR1.                                                     :LABEL PEAK COHERENCE, RECEIVER ARRAY - LOWER DIPOLE {F13.4}
 CHR2.                                                     :LABEL PEAK COHERENCE, RECEIVER ARRAY - UPPER DIPOLE {F13.4}
 CHRP.                                                     :LABEL PEAK COHERENCE, RECEIVER ARRAY, COMPRESSIONAL - MONOPOLE P&S {F13.4}
 CHRS.                                                     :LABEL PEAK COHERENCE, RECEIVER ARRAY, SHEAR - MONOPOLE P&S {F13.4}
 DRHO.K/M3                                                 :BULK DENSITY CORRECTION {F13.4}
 DT1R.US/M                                                 :DELTA-T SHEAR, RECEIVER ARRAY - LOWER DIPOLE {F13.4}
  DT2.US/M                                                 :DELTA-T SHEAR - UPPER DIPOLE {F13.4}
 DT2R.US/M                                                 :DELTA-T SHEAR, RECEIVER ARRAY - UPPER DIPOLE {F13.4}
 DT4P.US/M                                                 :DELTA-T COMPRESSIONAL - MONOPOLE P&S {F13.4}
 DT4S.US/M                                                 :DELTA-T SHEAR - MONOPOLE P&S {F13.4}
   GR.GAPI                                                 :GAMMA RAY {F13.4}
  HD1.MM                                                   :HOLE DIAMETER 1 {F13.4}
  HD2.MM                                                   :HOLE DIAMETER 2 {F13.4}
  HD3.MM                                                   :HOLE DIAMETER 3 {F13.4}
 NPOR.V/V                                                  :ENHANCED THERMAL NEUTRON POROSITY {F13.4}
  PEF.                                                     :PHOTOELECTRIC FACTOR {F13.4}
 RHOB.K/M3                                                 :BULK DENSITY {F13.4}
 SPR1.                                                     :STC SLOWNESS PROJECTION, RECEIVER ARRAY - LOWER DIPOLE {AF13.4}
 TENS.LBF                                                  :CABLE TENSION {F13.4}
 VPVS.                                                     :COMPRESSIONAL TO SHEAR VELOSITY RATIO {F13.4}
~A         DEPT             BS           CALI           CHR1           CHR2           CHRP           CHRS           DRHO           DT1R            DT2           DT2R           DT4P           DT4S             GR            HD1            HD2            HD3           NPOR            PEF           RHOB           SPR1           TENS           VPVS
# ...
     2748.99120      311.10000      308.03470        0.98540        0.97480        0.90950        0.73260       -4.52760      523.79060      490.13420      519.59530      290.79600      508.91740       56.46330      314.06750      311.22270      306.27270        0.36100        3.72570     2428.51420       32.74450     6421.00000        1.68550
     2749.14360      311.10000      308.04560        0.97360        0.96500        0.97570        0.73880       -6.11280      536.24320      494.42990      524.14920      296.28560      517.29500       54.71780      315.25340      307.99540      306.22230        0.32880        3.67380     2394.99510       29.96580     6473.00000        1.66880
     2749.29600      311.10000      308.09610        0.97260        0.97920        0.98270        0.72370       -7.00580      540.82720      497.07890      526.95740      298.58700      523.71880       51.39650      315.19510      309.03560      308.08830        0.31650        3.33590     2332.71310       28.03850     6523.00000        1.66480
     2749.44840      311.10000      307.67720        0.97170        0.97850        0.95340        0.75100       -8.92760      536.86930      498.63080      527.14960      298.76550      525.10000       47.24470      313.26920      301.74180      306.39480        0.31960        3.01670     2276.45390       27.61350     6455.00000        1.66900
     2749.60080      311.10000      308.76050        0.97070        0.97490        0.96440        0.73360       -8.41310      538.90280      495.40420      525.18210      297.59270      522.84460       45.90600      313.48140      303.98570      305.43120        0.35000        2.91080     2261.53640       28.64230     6446.00000        1.66470
     2749.75320      311.10000      307.70410        0.96970        0.97160        0.95550        0.74430       -7.54840      535.57400      495.07800      523.39360      295.82500      520.67290       43.05910      314.14970      304.73910      305.69220        0.36000        2.89000     2286.09010       29.14280     6428.00000        1.67360
     2749.90560      311.10000      308.47840        0.96850        0.96810        0.95850        0.77200       -3.82020      530.92250      492.14770      521.72970      293.29640      513.99020       45.90600      314.32250      309.83230      305.61230        0.32840        3.11150     2324.92090       30.07310     6454.00000        1.67800
     2750.05800      311.10000      308.27220        0.96640        0.95290        0.95840        0.76350       -7.23690      523.02000      489.41980      518.83800      289.88310      509.55040       45.31290      313.53410      309.23220      305.48190        0.31030        3.16980     2337.76780       28.79520     6419.00000        1.68830
     2750.21040      311.10000      308.60590        0.97010        0.95910        0.96420        0.78030      -11.19590      518.41080      486.94550      516.21490      288.65400      509.21080       48.04120      314.09170      311.04130      306.39480        0.30720        3.35060     2329.43380       36.82130     6395.00000        1.68700
     2750.36280      311.10000      308.12230        0.97250        0.96090        0.96750        0.76280      -11.18000      518.53000      486.23400      515.46060      289.15900      506.94280       45.91450      313.62590      311.34900      305.43120        0.30880        3.40430     2331.19290       44.44560     6521.00000        1.68150
     2750.51520      311.10000      308.36380        0.97290        0.96190        0.96680        0.73040      -10.53990      519.30770      485.18430      514.34780      288.43530      504.71800       42.71170      313.32710      297.19460      306.43620        0.36190        3.37110     2326.18600       41.86820     6579.00000        1.68210
     2750.66760      311.10000      308.36380        0.97210        0.96330        0.96820        0.70390      -11.58470      519.53520      480.05740      508.91270      290.27940      508.89280       39.98350      312.74520      307.83040      305.82960        0.35500        3.32220     2295.68820       46.95060     6501.00000        1.65380
     2750.82000      311.10000      308.33160        0.96950        0.96710        0.96060        0.70270      -11.03750      523.31100      478.48240      505.10130      290.87950      511.17340       38.83960      314.32250      308.48940      305.33850        0.33070        3.17030     2273.12080       43.26930     6610.00000        1.64500
     2750.97240      311.10000      308.21280        0.96650        0.96850        0.94850        0.75200      -13.64210      524.49770      480.44680      509.32560      288.82190      502.32710       40.38170      315.30660      309.80620      305.13310        0.34360        3.13790     2265.79810       42.42700     6566.00000        1.66350
     2751.12480      311.10000      308.60590        0.96560        0.97080        0.96600        0.80160      -13.25430      522.51860      485.00830      514.16120      286.97300      506.20280       41.21200      314.41440      309.03740      305.33830        0.29320        3.24670     2302.29910       32.25220     6481.00000        1.69010
     2751.27720      311.10000      308.24940        0.96460        0.96960        0.94940        0.73670       -7.23620      519.66540      492.33760      521.93110      283.02670      498.02600       41.99150      314.66540      308.82900      305.25860        0.34950        3.49630     2348.19680       30.26910     6495.00000        1.73950
     2751.42960      311.10000      309.05190        0.96690        0.96360        0.95060        0.86050       -6.37920      517.84130      495.74820      525.54680      283.73160      500.56960       45.43150      314.66540      308.69820      305.89000        0.36240        3.57870     2352.63750       31.03740     6408.00000        1.74720
     2751.58200      311.10000      308.68780        0.96880        0.96440        0.95190        0.77330       -7.38900      520.65980      502.64730      532.86050      288.91040      511.42120       48.15980      314.66540      307.45360      306.39480        0.32670        3.57290     2332.55100       36.81090     6484.00000        1.73980
     2751.73440      311.10000      309.11560        0.97090        0.96640        0.96320        0.80670       -6.34790      535.61870      505.35300      535.72880      294.47120      515.11070       51.48120      315.86060      311.26540      305.48190        0.32270        3.46760     2297.45530       30.88330     6442.00000        1.71610
     2751.88680      311.10000      308.74720        0.97210        0.96850        0.97360        0.81490       -3.09510      546.82710      509.74570      540.38560      296.47900      516.45090       49.60020      314.28940      312.26770      305.87320        0.35820        3.37430     2268.87080       26.00210     6422.00000        1.71930
     2752.03920      311.10000      308.80930        0.97220        0.96910        0.97750        0.84950       -2.91290      551.98410      510.48180      541.16590      296.40820      528.85550       46.04160      315.03440      311.04670      304.51720        0.33230        3.00030     2232.46730       27.39580     6540.00000        1.72220
     2752.19160      311.10000      309.29500        0.97480        0.97000        0.98780        0.81670       -5.32260      550.31140      506.25430      536.68430      296.94580      523.63830       42.36440      314.00310      310.13670      305.87320        0.34460        2.80180     2218.93120       35.87860     6578.00000        1.70490
     2752.34400      311.10000      308.19880        0.97740        0.97130        0.98370        0.81020       -0.10970      551.91970      504.24960      534.55910      297.01240      519.84470       44.60120      315.29320      312.17460      305.30070        0.32020        2.89320     2259.21680       36.96370     6552.00000        1.69770
     2752.49640      311.10000      308.91400        0.98020        0.97380        0.97780        0.81540        0.48200      549.15580      501.26050      531.39040      297.48850      518.72880       47.21090      314.74180      311.14000      307.11690        0.29730        3.05260     2306.34670       25.52600     6604.00000        1.68500
