~VERSION
 VERS.        2.0                                          :CWLS Log ASCII Standard - VERSION 2.0
 WRAP.        NO                                           :One Line per depth step
 PROD.        Schlumberger                                 :LAS Producer
 PROG.        DLIS to ASCII 2.2                            :LAS Program name and version
 CREA.        2006/03/10 09:49                          :LAS Creation date {YYYY/MM/DD hh  :mm}
SOURCE.       DSI_EMS_LDL_CNL_NGS_030PUP.DLIS              :DLIS File Name
FILE-ID.      DSI_EMS_LDL_CNL_NGS_030PUP                   :File Identification Number
#--------------------------------------------------
~WELL
#MNEM.UNIT      DATA             DESCRIPTION
#---- ------ --------------   -----------------------------
 STRT.M       2193.03600                                                                                     :START DEPTH
 STOP.M       3388.15680                                                                                     :STOP DEPTH
 STEP.M       0.15240                                                                                        :STEP
 NULL.        -999.25000                                                                                     :NULL VALUE
 COMP.        EXXONMOBIL CANADA PROPERTIES                                                                   :COMPANY
 WELL.        EXXONMOBIL ET AL ALMA 3                                                                        :WELL
  FLD.        ALMA                                                                                           :FIELD
  LOC.        Offshore Nova Scotia - Sable Island                                                            :LOCATION
 PROV.        NOVA SCOTIA                                                                                    :PROVINCE
 CTRY.        CANADA                                                                                         :COUNTRY
  UWI.        303N764340060300                                                                               :UNIQUE WELL ID
 DATE.        04-Mar-2006                                                                                    :LOG DATE {DD-MMM-YYYY}
 SRVC.        Schlumberger                                                                                   :SERVICE COMPANY
 LATI.DEG     43 35' 47.74" N                                                                                :LATITUDE
 LONG.DEG     60 41' 22.69" W                                                                                :LONGITUDE
#-----------------------------------------------------------------------------
~PARAMETER
#MNEM.UNIT    VALUE                                        :DESCRIPTION
#----.----    ---------------                              :-------------------
  RUN.        ONE                                          :RUN NUMBER
 PDAT.        LLWLT                                        :PERMANENT DATUM
  EPD.M       0.000000                                     :ELEVATION OF PERMANENT DATUM ABOVE MEAN SEA LEVEL
  EPD.M       0.000000                                     :ELEVATION OF TOOL ZERO ABOVE MEAN SEA LEVEL
  LMF.        ROTARY TABLE                                 :LOGGING MEASURED FROM (NAME OF LOGGING ELEVATION REFERENCE)
  APD.M       56.700001                                    :ELEVATION OF DEPTH REFERENCE (LMF) ABOVE PERMANENT DATUM
~CURVE
#MNEM.UNIT    VALUE                                        :DESCRIPTION
#----.----    ---------------                              :-------------------
 DEPT.M       00 001 00 00                                 :Depth Index
   BS.MM                                                   :BIT SIZE {F13.4}
 CALI.MM                                                   :CALIPER {F13.4}
 CHR1.                                                     :LABEL PEAK COHERENCE, RECEIVER ARRAY - LOWER DIPOLE {F13.4}
 CHR2.                                                     :LABEL PEAK COHERENCE, RECEIVER ARRAY - UPPER DIPOLE {F13.4}
 CHRP.                                                     :LABEL PEAK COHERENCE, RECEIVER ARRAY, COMPRESSIONAL - MONOPOLE P&S {F13.4}
 CHRS.                                                     :LABEL PEAK COHERENCE, RECEIVER ARRAY, SHEAR - MONOPOLE P&S {F13.4}
 DRHO.K/M3                                                 :BULK DENSITY CORRECTION {F13.4}
 DT1R.US/M                                                 :DELTA-T SHEAR, RECEIVER ARRAY - LOWER DIPOLE {F13.4}
  DT2.US/M                                                 :DELTA-T SHEAR - UPPER DIPOLE {F13.4}
 DT2R.US/M                                                 :DELTA-T SHEAR, RECEIVER ARRAY - UPPER DIPOLE {F13.4}
 DT4P.US/M                                                 :DELTA-T COMPRESSIONAL - MONOPOLE P&S {F13.4}
 DT4S.US/M                                                 :DELTA-T SHEAR - MONOPOLE P&S {F13.4}
   GR.GAPI                                                 :GAMMA RAY {F13.4}
  HD1.MM                                                   :HOLE DIAMETER 1 {F13.4}
  HD2.MM                                                   :HOLE DIAMETER 2 {F13.4}
  HD3.MM                                                   :HOLE DIAMETER 3 {F13.4}
 NPOR.V/V                                                  :ENHANCED THERMAL NEUTRON POROSITY {F13.4}
  PEF.                                                     :PHOTOELECTRIC FACTOR {F13.4}
 RHOB.K/M3                                                 :BULK DENSITY {F13.4}
 SPR1.                                                     :STC SLOWNESS PROJECTION, RECEIVER ARRAY - LOWER DIPOLE {AF13.4}
 TENS.LBF                                                  :CABLE TENSION {F13.4}
 VPVS.                                                     :COMPRESSIONAL TO SHEAR VELOSITY RATIO {F13.4}
~A         DEPT             BS           CALI           CHR1           CHR2           CHRP           CHRS           DRHO           DT1R            DT2           DT2R           DT4P           DT4S             GR            HD1            HD2            HD3           NPOR            PEF           RHOB           SPR1           TENS           VPVS
# ...
     2829.45840      311.10000      311.35970        0.98060        0.97460        0.95330        0.81740       -5.93300      603.14940      566.88510      599.81500      291.86420      544.42430       83.50880      317.89210      309.51340      304.08440        0.38730        4.37860     2516.70240       69.12270     6655.00000        1.94230
     2829.61080      311.10000      311.29160        0.97030        0.97600        0.93650        0.77020       -4.76650      603.02250      564.81820      597.62800      294.85970      547.59540       86.71160      316.81910      309.83020      304.65400        0.38560        4.33410     2516.88110       70.66190     6551.00000        1.91550
     2829.76320      311.10000      312.16670        0.97090        0.97740        0.92020        0.77730        1.06540      602.53550      564.25720      597.03440      294.98660      548.17910       87.51230      318.40320      310.27000      304.34590        0.35820        4.21980     2523.00980       68.27080     6638.00000        1.91280
     2829.91560      311.10000      311.06670        0.97160        0.97600        0.91010        0.73820       -0.77000      603.27190      563.96200      596.72200      295.18200      548.58630       86.08880      318.40320      310.27000      304.78470        0.35060        4.25200     2519.68290       66.87000     6608.00000        1.91060
     2830.06800      311.10000      312.05580        0.97160        0.97470        0.90100        0.72060       -2.45420      603.30400      564.19290      596.96630      294.72420      549.32060       81.69990      318.21020      309.84830      304.25710        0.34740        4.25830     2516.21090       67.42490     6627.00000        1.91430
     2830.22040      311.10000      311.55560        0.96750        0.97320        0.90650        0.73260       -1.67750      603.48490      565.18040      598.01130      295.17780      552.03920       79.23850      318.60830      309.72910      303.97660        0.35370        4.20120     2516.90890       72.84720     6660.00000        1.91470
     2830.37280      311.10000      312.63540        0.96500        0.97440        0.91810        0.71660        1.05090      598.47350      565.99970      598.87810      295.99650      555.09520       80.66190      318.89400      309.63480      303.40620        0.35950        3.88960     2518.94480       65.75160     6585.00000        1.91220
     2830.52520      311.10000      311.49610        0.96930        0.97570        0.93810        0.73990       -1.22140      613.07790      569.78200      602.88020      298.39710      559.52010       82.44120      319.80170      309.35950      303.45810        0.40440        3.76250     2520.03470       59.62880     6646.00000        1.90950
     2830.67760      311.10000      312.31850        0.96530        0.97430        0.93200        0.73670        1.54820      613.24250      570.40690      603.54130      298.09280      563.71970       80.54330      320.43760      309.91240      303.53710        0.38200        3.82920     2525.21680       72.93840     6693.00000        1.91350
     2830.83000      311.10000      313.24570        0.96680        0.97510        0.95190        0.71920       -1.01710      613.38170      570.25230      603.37770      297.40970      563.51570       81.25500      319.92100      309.64510      303.47720        0.35820        4.08960     2521.47750       61.86460     6589.00000        1.91740
     2830.98240      311.10000      313.01790        0.96610        0.97250        0.95330        0.73640       -2.02510      608.80400      568.52140      601.54630      298.83540      562.75320       81.96670      320.11290      309.77030      304.00040        0.37770        4.32160     2520.67700       65.44640     6639.00000        1.90250
     2831.13480      311.10000      313.02230        0.96510        0.97370        0.94760        0.69640       -8.22990      606.06980      566.98500      599.92060      299.29810      562.98630       82.79710      319.88910      309.14610      304.00040        0.36830        4.37300     2509.84330       50.38470     6657.00000        1.89440
     2831.28720      311.10000      313.06600        0.96780        0.97440        0.94150        0.70360       -7.78370      605.97420      566.25920      599.15260      297.87130      563.70800       81.25500      320.08140      309.19800      304.21510        0.36810        4.32620     2508.46440       52.26330     6559.00000        1.90100
     2831.43960      311.10000      312.82920        0.96950        0.97440        0.93940        0.74760      -12.27830      605.60060      565.70590      598.56730      296.26800      562.49570       80.78050      320.14750      308.86460      304.00510        0.39010        4.04460     2494.79980       51.89210     6606.00000        1.90940
     2831.59200      311.10000      312.31850        0.98150        0.97430        0.94810        0.76240       -5.49380      604.39430      565.25530      598.09050      296.55350      559.38540       79.86120      318.72760      307.86220      304.13110        0.38910        3.88390     2505.09860       45.32830     6607.00000        1.90610
     2831.74440      311.10000      312.42850        0.98200        0.97560        0.94640        0.74220       -1.23200      604.33950      565.01310      597.83420      297.05490      558.67270       83.41980      320.79970      307.94470      305.51770        0.37670        3.95670     2522.41500       41.89540     6688.00000        1.90200
     2831.89680      311.10000      312.37370        0.98240        0.97570        0.93810        0.68460        2.24140      598.56350      565.64120      598.49880      297.12670      558.16010       83.41980      320.07340      308.07580      305.13010        0.37390        4.21390     2532.97580       33.93670     6722.00000        1.90370
     2832.04920      311.10000      313.17910        0.98060        0.97590        0.92780        0.68090        2.69680      608.67400      566.28250      599.17740      297.15430      557.78530       83.74610      319.91240      308.17590      305.31180        0.39190        4.36400     2529.14110       31.57160     6618.00000        1.90570
     2832.20160      311.10000      311.70110        0.97820        0.97520        0.93650        0.67080        1.98150      610.48010      567.04750      599.98680      298.99110      561.61540       81.61090      319.67090      308.46910      305.26080        0.39000        4.28870     2518.37670       33.34200     6662.00000        1.89650
     2832.35400      311.10000      312.07230        0.97730        0.97500        0.92690        0.68690       -2.93160      612.66100      567.99860      600.99320      299.90310      564.97430       82.79710      319.73200      307.40070      306.04010        0.38280        4.42070     2517.36180       38.72540     6675.00000        1.89390
     2832.50640      311.10000      312.23430        0.97800        0.97420        0.92380        0.67070       -2.77650      614.34910      569.16470      602.22690      300.90510      561.81560       81.37360      318.61430      308.84100      305.05960        0.36590        4.39510     2514.26220       35.80930     6649.00000        1.89150
     2832.65880      311.10000      311.80990        0.97330        0.97010        0.91240        0.67970       -6.90420      615.01880      569.20300      602.26750      300.36980      561.42470       80.54330      317.06970      309.34170      303.88370        0.39980        4.48200     2508.37400       36.66280     6678.00000        1.89500
     2832.81120      311.10000      312.06400        0.96890        0.96580        0.92260        0.67980       -9.69730      615.30360      568.01190      601.00710      300.28130      558.65940       80.68730      317.60200      309.10410      303.83220        0.41100        4.13130     2496.38060       37.27740     6686.00000        1.89160
     2832.96360      311.10000      312.11900        0.96570        0.96280        0.92590        0.69100       -8.93100      613.41880      567.31080      600.26530      298.52080      555.91810       83.65290      317.46700      309.46680      306.23450        0.38710        4.02700     2502.64840       47.54180     6690.00000        1.90040
