~VERSION
 VERS.        2.0                                          :CWLS Log ASCII Standard - VERSION 2.0
 WRAP.        NO                                           :One Line per depth step
 PROD.        Schlumberger                                 :LAS Producer
 PROG.        DLIS to ASCII 2.2                            :LAS Program name and version
 CREA.        2006/03/10 09:49                          :LAS Creation date {YYYY/MM/DD hh  :mm}
SOURCE.       DSI_EMS_LDL_CNL_NGS_030PUP.DLIS              :DLIS File Name
FILE-ID.      DSI_EMS_LDL_CNL_NGS_030PUP                   :File Identification Number
#--------------------------------------------------
~WELL
#MNEM.UNIT      DATA             DESCRIPTION
#---- ------ --------------   -----------------------------
 STRT.M       2193.03600                                                                                     :START DEPTH
 STOP.M       3388.15680                                                                                     :STOP DEPTH
 STEP.M       0.15240                                                                                        :STEP
 NULL.        -999.25000                                                                                     :NULL VALUE
 COMP.        EXXONMOBIL CANADA PROPERTIES                                                                   :COMPANY
 WELL.        EXXONMOBIL ET AL ALMA 3                                                                        :WELL
  FLD.        ALMA                                                                                           :FIELD
  LOC.        Offshore Nova Scotia - Sable Island                                                            :LOCATION
 PROV.        NOVA SCOTIA                                                                                    :PROVINCE
 CTRY.        CANADA                                                                                         :COUNTRY
  UWI.        303N764340060300                                                                               :UNIQUE WELL ID
 DATE.        04-Mar-2006                                                                                    :LOG DATE {DD-MMM-YYYY}
 SRVC.        Schlumberger                                                                                   :SERVICE COMPANY
 LATI.DEG     43 35' 47.74" N                                                                                :LATITUDE
 LONG.DEG     60 41' 22.69" W                                                                                :LONGITUDE
#-----------------------------------------------------------------------------
~PARAMETER
#MNEM.UNIT    VALUE                                        :DESCRIPTION
#----.----    ---------------                              :-------------------
  RUN.        ONE                                          :RUN NUMBER
 PDAT.        LLWLT                                        :PERMANENT DATUM
  EPD.M       0.000000                                     :ELEVATION OF PERMANENT DATUM ABOVE MEAN SEA LEVEL
  EPD.M       0.000000                                     :ELEVATION OF TOOL ZERO ABOVE MEAN SEA LEVEL
  LMF.        ROTARY TABLE                                 :LOGGING MEASURED FROM (NAME OF LOGGING ELEVATION REFERENCE)
  APD.M       56.700001                                    :ELEVATION OF DEPTH REFERENCE (LMF) ABOVE PERMANENT DATUM
~CURVE
#MNEM.UNIT    VALUE                                        :DESCRIPTION
#----.----    ---------------                              :-------------------
 DEPT.M       00 001 00 00                                 :Depth Index
   BS.MM                                                   :BIT SIZE {F13.4}
 CALI.MM                                                   :CALIPER {F13.4}
 CHR1.                                                     :LABEL PEAK COHERENCE, RECEIVER ARRAY - LOWER DIPOLE {F13.4}
 CHR2.                                                     :LABEL PEAK COHERENCE, RECEIVER ARRAY - UPPER DIPOLE {F13.4}
 CHRP.                                                     :LABEL PEAK COHERENCE, RECEIVER ARRAY, COMPRESSIONAL - MONOPOLE P&S {F13.4}
 CHRS.                                                     :LABEL PEAK COHERENCE, RECEIVER ARRAY, SHEAR - MONOPOLE P&S {F13.4}
 DRHO.K/M3                                                 :BULK DENSITY CORRECTION {F13.4}
 DT1R.US/M                                                 :DELTA-T SHEAR, RECEIVER ARRAY - LOWER DIPOLE {F13.4}
  DT2.US/M                                                 :DELTA-T SHEAR - UPPER DIPOLE {F13.4}
 DT2R.US/M                                                 :DELTA-T SHEAR, RECEIVER ARRAY - UPPER DIPOLE {F13.4}
 DT4P.US/M                                                 :DELTA-T COMPRESSIONAL - MONOPOLE P&S {F13.4}
 DT4S.US/M                                                 :DELTA-T SHEAR - MONOPOLE P&S {F13.4}
   GR.GAPI                                                 :GAMMA RAY {F13.4}
  HD1.MM                                                   :HOLE DIAMETER 1 {F13.4}
  HD2.MM                                                   :HOLE DIAMETER 2 {F13.4}
  HD3.MM                                                   :HOLE DIAMETER 3 {F13.4}
 NPOR.V/V                                                  :ENHANCED THERMAL NEUTRON POROSITY {F13.4}
  PEF.                                                     :PHOTOELECTRIC FACTOR {F13.4}
 RHOB.K/M3                                                 :BULK DENSITY {F13.4}
 SPR1.                                                     :STC SLOWNESS PROJECTION, RECEIVER ARRAY - LOWER DIPOLE {AF13.4}
 TENS.LBF                                                  :CABLE TENSION {F13.4}
 VPVS.                                                     :COMPRESSIONAL TO SHEAR VELOSITY RATIO {F13.4}
~A         DEPT             BS           CALI           CHR1           CHR2           CHRP           CHRS           DRHO           DT1R            DT2           DT2R           DT4P           DT4S             GR            HD1            HD2            HD3           NPOR            PEF           RHOB           SPR1           TENS           VPVS
# ...
     2909.92560      311.10000      310.84610        0.98240        0.98330        0.95260        0.85360       -5.17630      454.84150      426.97890      448.55440      256.36150      446.72850       75.20540      317.56960      311.17210      306.14170        0.28370        4.10810     2498.35860       48.38570     6786.00000        1.66550
     2910.07800      311.10000      310.81590        0.98510        0.98270        0.91960        0.86980       -1.24770      457.22890      431.53320      453.33880      256.55510      445.52350       73.42610      318.63050      310.22010      306.09580        0.31860        4.24580     2517.75980       48.04710     6796.00000        1.68200
     2910.23040      311.10000      310.66550        0.98260        0.97970        0.94810        0.86960       -7.42200      457.69600      430.12660      451.86110      256.69600      446.01110       66.79080      317.23140      311.09820      305.96490        0.34500        4.35450     2504.23750       48.75370     6847.00000        1.67560
     2910.38280      311.10000      311.29140        0.98130        0.97810        0.93520        0.87880       -5.28530      457.73470      432.10000      453.93430      257.25970      445.07060       63.23220      317.09880      311.34900      306.09580        0.26950        4.22850     2491.01320       47.62280     6767.00000        1.67960
     2910.53520      311.10000      311.29140        0.98580        0.98240        0.92780        0.87940       -1.22120      459.92720      436.02620      458.05880      254.97440      446.57240       61.57150      316.82690      311.22360      306.22160        0.25710        4.19550     2488.81590       47.52630     6761.00000        1.71010
     2910.68760      311.10000      310.85620        0.98610        0.97910        0.95470        0.89720       -2.82620      461.20090      431.52510      453.33030      259.30940      449.00740       64.88540      316.48140      309.00730      306.39830        0.28530        4.00350     2482.69680       48.32150     6799.00000        1.66410
     2910.84000      311.10000      311.92000        0.98390        0.97750        0.86220        0.76070       -3.93020      456.36270      423.29900      444.68860      256.66850      443.01750       67.37650      317.16530      311.09410      307.00220        0.30570        3.95310     2487.95040       51.76850     6730.00000        1.64920
     2910.99240      311.10000      310.62260        0.98310        0.97490        0.83130        0.72400        0.69380      453.09580      420.18390      439.29320      251.20060      442.15420       70.57920      321.18430      310.23650      306.47890        0.29660        3.99210     2517.44120       54.38760     6821.00000        1.67270
     2911.14480      311.10000      310.64720        0.97830        0.97370        0.85620        0.70180       -2.73530      448.93220      414.77350      433.63670      248.91890      437.25980       67.96960      317.66820      310.52540      304.03630        0.34080        3.90000     2533.42040       53.49250     6843.00000        1.66630
     2911.29720      311.10000      310.98490        0.97990        0.97520        0.85520        0.68680       -4.01290      449.64420      414.76950      433.63260      244.16190      434.43710       62.51300      317.53550      310.48830      304.26510        0.30130        3.82230     2543.95510       52.63700     6830.00000        1.69870
     2911.44960      311.10000      310.79260        0.98020        0.97530        0.85370        0.68050       -1.70020      449.88130      415.13780      434.01760      244.56220      432.72390       56.60420      317.13750      310.69270      305.35190        0.19880        3.84070     2558.99680       52.04850     6852.00000        1.69750
     2911.60200      311.10000      311.11310        0.98280        0.98040        0.84900        0.68320        0.20480      453.64110      422.36840      441.57700      244.18940      432.21060       60.16290      317.46890      310.09400      305.06460        0.22190        3.87130     2574.95870       49.15820     6826.00000        1.72970
     2911.75440      311.10000      311.03700        0.98330        0.97880        0.84890        0.78640        1.49950      460.11730      426.80010      448.36660      251.25630      447.32880       63.00980      317.76830      309.91800      305.47460        0.31890        3.96270     2587.09550       46.29590     6872.00000        1.69870
     2911.90680      311.10000      310.85620        0.97850        0.97510        0.90490        0.82850       -1.99250      469.74020      431.49290      453.29640      262.05440      459.88850       68.44410      318.04710      308.96460      306.56400        0.36140        3.81550     2564.51930       46.17330     6925.00000        1.64660
     2912.05920      311.10000      311.11310        0.97680        0.97590        0.97130        0.83600       -3.86700      472.83400      434.78660      456.75660      263.79490      465.70440       69.27440      318.54320      308.62540      306.35820        0.32900        3.66660     2538.94950       45.81060     6890.00000        1.64820
     2912.21160      311.10000      311.70740        0.98290        0.97990        0.94660        0.80620       -7.62610      476.57500      442.36800      464.72100      262.48200      466.39330       67.96960      318.82250      308.53190      306.43820        0.32050        3.49880     2508.33330       46.35660     6893.00000        1.68530
     2912.36400      311.10000      311.95350        0.98270        0.97930        0.93200        0.82210      -10.41220      479.38430      447.43000      470.03880      263.16680      467.84840       65.12270      318.80820      296.22920      305.22600        0.30190        3.53380     2488.03690       41.93730     6937.00000        1.70020
     2912.51640      311.10000      312.41200        0.98180        0.97740        0.95490        0.81390      -12.33610      479.87840      448.05450      470.69490      264.46730      469.75610       59.69580      318.42470      310.24550      304.59170        0.30190        3.73170     2469.83330       45.05550     6855.00000        1.69420
     2912.66880      311.10000      310.31090        0.98290        0.97530        0.94970        0.77890       -9.86180      481.12040      448.56450      471.23070      263.82190      464.15940       61.94960      316.05610      309.88920      305.24590        0.28480        3.92590     2469.52810       43.02880     6911.00000        1.70030
     2912.82120      311.10000      310.15680        0.98380        0.97720        0.93330        0.81900       -9.54230      481.80750      450.63500      473.40580      265.02170      471.83040       59.57720      316.40110      310.13670      305.63820        0.30530        3.87020     2481.50050       43.14250     6789.00000        1.70040
     2912.97360      311.10000      310.56840        0.98500        0.97890        0.92320        0.80700       -8.61160      485.09580      452.03880      477.18650      264.14820      476.19050       62.03860      316.67240      274.66530      306.03040        0.33610        3.93100     2504.86770       42.77010     6748.00000        1.71130
     2913.12600      311.10000      309.99410        0.98500        0.97960        0.91710        0.81710       -5.18410      486.68810      453.40690      478.63070      268.51880      474.99920       61.44540      316.27500      311.19210      306.40330        0.38260        4.20780     2494.58060       41.18710     6781.00000        1.68850
     2913.27840      311.10000      310.27330        0.98320        0.97860        0.93640        0.82540       -6.40090      490.75500      456.63770      482.04130      267.79890      476.14990       67.37650      317.29550      311.05460      306.47350        0.35080        4.21090     2464.61280       41.18960     6797.00000        1.70520
     2913.43080      311.10000      310.70660        0.98270        0.97840        0.95860        0.83290       -6.97680      492.94400      456.72740      482.13590      270.72600      480.03960       69.51170      317.99640      311.36720      306.39350        0.33170        3.97320     2434.30540       41.16110     6862.00000        1.68700
