~VERSION
 VERS.        2.0                                          :CWLS Log ASCII Standard - VERSION 2.0
 WRAP.        NO                                           :One Line per depth step
 PROD.        Schlumberger                                 :LAS Producer
 PROG.        DLIS to ASCII 2.2                            :LAS Program name and version
 CREA.        2006/03/10 09:49                          :LAS Creation date {YYYY/MM/DD hh  :mm}
SOURCE.       DSI_EMS_LDL_CNL_NGS_030PUP.DLIS              :DLIS File Name
FILE-ID.      DSI_EMS_LDL_CNL_NGS_030PUP                   :File Identification Number
#--------------------------------------------------
~WELL
#MNEM.UNIT      DATA             DESCRIPTION
#---- ------ --------------   -----------------------------
 STRT.M       2193.03600                                                                                     :START DEPTH
 STOP.M       3388.15680                                                                                     :STOP DEPTH
 STEP.M       0.15240                                                                                        :STEP
 NULL.        -999.25000                                                                                     :NULL VALUE
 COMP.        EXXONMOBIL CANADA PROPERTIES                                                                   :COMPANY
 WELL.        EXXONMOBIL ET AL ALMA 3                                                                        :WELL
  FLD.        ALMA                                                                                           :FIELD
  LOC.        Offshore Nova Scotia - Sable Island                                                            :LOCATION
 PROV.        NOVA SCOTIA                                                                                    :PROVINCE
 CTRY.        CANADA                                                                                         :COUNTRY
  UWI.        303N764340060300                                                                               :UNIQUE WELL ID
 DATE.        04-Mar-2006                                                                                    :LOG DATE {DD-MMM-YYYY}
 SRVC.        Schlumberger                                                                                   :SERVICE COMPANY
 LATI.DEG     43 35' 47.74" N                                                                                :LATITUDE
 LONG.DEG     60 41' 22.69" W                                                                                :LONGITUDE
#-----------------------------------------------------------------------------
~PARAMETER
#MNEM.UNIT    VALUE                                        :DESCRIPTION
#----.----    ---------------                              :-------------------
  RUN.        ONE                                          :RUN NUMBER
 PDAT.        LLWLT                                        :PERMANENT DATUM
  EPD.M       0.000000                                     :ELEVATION OF PERMANENT DATUM ABOVE MEAN SEA LEVEL
  EPD.M       0.000000                                     :ELEVATION OF TOOL ZERO ABOVE MEAN SEA LEVEL
  LMF.        ROTARY TABLE                                 :LOGGING MEASURED FROM (NAME OF LOGGING ELEVATION REFERENCE)
  APD.M       56.700001                                    :ELEVATION OF DEPTH REFERENCE (LMF) ABOVE PERMANENT DATUM
~CURVE
#MNEM.UNIT    VALUE                                        :DESCRIPTION
#----.----    ---------------                              :-------------------
 DEPT.M       00 001 00 00                                 :Depth Index
   BS.MM                                                   :BIT SIZE {F13.4}
 CALI.MM                                                   :CALIPER {F13.4}
 CHR1.                                                     :LABEL PEAK COHERENCE, RECEIVER ARRAY - LOWER DIPOLE {F13.4}
 CHR2.                                                     :LABEL PEAK COHERENCE, RECEIVER ARRAY - UPPER DIPOLE {F13.4}
 CHRP.                                                     :LABEL PEAK COHERENCE, RECEIVER ARRAY, COMPRESSIONAL - MONOPOLE P&S {F13.4}
 CHRS.                                                     :LABEL PEAK COHERENCE, RECEIVER ARRAY, SHEAR - MONOPOLE P&S {F13.4}
 DRHO.K/M3                                                 :BULK DENSITY CORRECTION {F13.4}
 DT1R.US/M                                                 :DELTA-T SHEAR, RECEIVER ARRAY - LOWER DIPOLE {F13.4}
  DT2.US/M                                                 :DELTA-T SHEAR - UPPER DIPOLE {F13.4}
 DT2R.US/M                                                 :DELTA-T SHEAR, RECEIVER ARRAY - UPPER DIPOLE {F13.4}
 DT4P.US/M                                                 :DELTA-T COMPRESSIONAL - MONOPOLE P&S {F13.4}
 DT4S.US/M                                                 :DELTA-T SHEAR - MONOPOLE P&S {F13.4}
   GR.GAPI                                                 :GAMMA RAY {F13.4}
  HD1.MM                                                   :HOLE DIAMETER 1 {F13.4}
  HD2.MM                                                   :HOLE DIAMETER 2 {F13.4}
  HD3.MM                                                   :HOLE DIAMETER 3 {F13.4}
 NPOR.V/V                                                  :ENHANCED THERMAL NEUTRON POROSITY {F13.4}
  PEF.                                                     :PHOTOELECTRIC FACTOR {F13.4}
 RHOB.K/M3                                                 :BULK DENSITY {F13.4}
 SPR1.                                                     :STC SLOWNESS PROJECTION, RECEIVER ARRAY - LOWER DIPOLE {AF13.4}
 TENS.LBF                                                  :CABLE TENSION {F13.4}
 VPVS.                                                     :COMPRESSIONAL TO SHEAR VELOSITY RATIO {F13.4}
~A         DEPT             BS           CALI           CHR1           CHR2           CHRP           CHRS           DRHO           DT1R            DT2           DT2R           DT4P           DT4S             GR            HD1            HD2            HD3           NPOR            PEF           RHOB           SPR1           TENS           VPVS
# ...
     3385.41360      311.10000      303.70900        0.98230        0.98560        0.97040        0.88500        5.44290      452.30000      438.70530      459.90700      252.49510      445.84780       43.97440       75.62930       80.56530       80.25880        0.24140        4.29160     2480.86450       43.73970     5676.00000        1.73750
     3385.56600      311.10000      303.70900        0.98230        0.98560        0.97040        0.88500        5.44290      452.30000      438.70530      459.90700      252.49510      445.84780       45.04890       75.62930       80.56530       80.25880        0.24140        4.29160     2480.86450       43.73970     5669.00000        1.73750
     3385.71840      311.10000      303.70900        0.98230        0.98560        0.97040        0.88500        5.44290      452.30000      438.70530      459.90700      252.49510      445.84780       42.37990       75.62930       80.56530       80.25880        0.24140        4.29160     2480.86450       43.73970     5615.00000        1.73750
     3385.87080      311.10000      303.70900        0.98230        0.98560        0.97040        0.88500        5.44290      452.30000      438.70530      459.90700      252.49510      445.84780       42.86900       75.62930       80.56530       80.25880        0.24140        4.29160     2480.86450       43.73970     5499.00000        1.73750
     3386.02320      311.10000      303.70900        0.98230        0.98560        0.97040        0.88500        5.44290      452.30000      438.70530      459.90700      252.49510      445.84780       40.09990       75.62930       80.56530       80.25880        0.24140        4.29160     2480.86450       43.73970     5494.00000        1.73750
     3386.17560      311.10000      303.70900        0.98230        0.98560        0.97040        0.88500        5.44290      452.30000      438.70530      459.90700      252.49510      445.84780       39.37200       75.62930       80.56530       80.25880        0.24140        4.29160     2480.86450       43.73970     5395.00000        1.73750
     3386.32800      311.10000      303.70900        0.98230        0.98560        0.97040        0.88500        5.44290      452.30000      438.70530      459.90700      252.49510      445.84780       38.44000       75.62930       80.56530       80.25880        0.24140        4.29160     2480.86450       43.73970     5306.00000        1.73750
     3386.48040      311.10000      303.70900        0.98230        0.98560        0.97040        0.88500        5.44290      452.30000      438.70530      459.90700      252.49510      445.84780       40.72390       75.62930       80.56530       80.25880        0.24140        4.29160     2480.86450       43.73970     5294.00000        1.73750
     3386.63280      311.10000      303.70900        0.98230        0.98560        0.97040        0.88500        5.44290      452.30000      438.70530      459.90700      252.49510      445.84780       40.41190       75.62930       80.56530       80.25880        0.24140        4.29160     2480.86450       43.73970     5179.00000        1.73750
     3386.78520      311.10000      303.70900        0.98230        0.98560        0.97040        0.88500        5.44290      452.30000      438.70530      459.90700      252.49510      445.84780       40.28870       75.62930       80.56530       80.25880        0.24140        4.29160     2480.86450       43.73970     5133.00000        1.73750
     3386.93760      311.10000      303.70900        0.98230        0.98560        0.97040        0.88500        5.44290      452.30000      438.70530      459.90700      252.49510      445.84780       38.69210       75.62930       80.56530       80.25880        0.24140        4.29160     2480.86450       43.73970     5070.00000        1.73750
     3387.09000      311.10000      303.70900        0.98230        0.98560        0.97040        0.88500        5.44290      452.30000      438.70530      459.90700      252.49510      445.84780       37.99310       75.62930       80.56530       80.25880        0.24140        4.29160     2480.86450       43.73970     4949.00000        1.73750
     3387.24240      311.10000      303.70900        0.98230        0.98560        0.97040        0.88500        5.44290      452.30000      438.70530      459.90700      252.49510      445.84780       35.40500       75.62930       80.56530       80.25880        0.24140        4.29160     2480.86450       43.73970     4890.00000        1.73750
     3387.39480      311.10000      303.70900        0.98230        0.98560        0.97040        0.88500        5.44290      452.30000      438.70530      459.90700      252.49510      445.84780       33.36210       75.62930       80.56530       80.25880        0.24140        4.29160     2480.86450       43.73970     4784.00000        1.73750
     3387.54720      311.10000      303.70900        0.98230        0.98560        0.97040        0.88500        5.44290      452.30000      438.70530      459.90700      252.49510      445.84780       32.02760       75.62930       80.56530       80.25880        0.24140        4.29160     2480.86450       43.73970     4663.00000        1.73750
     3387.69960      311.10000      303.70900        0.98230        0.98560        0.97040        0.88500        5.44290      452.30000      438.70530      459.90700      252.49510      445.84780       32.02760       75.62930       80.56530       80.25880        0.24140        4.29160     2480.86450       43.73970     4625.00000        1.73750
     3387.85200      311.10000      303.70900        0.98230        0.98560        0.97040        0.88500        5.44290      452.30000      438.70530      459.90700      252.49510      445.84780       32.02760       75.62930       80.56530       80.25880        0.24140        4.29160     2480.86450       43.73970     4476.00000        1.73750
     3388.00440      311.10000      303.70900        0.98230        0.98560        0.97040        0.88500        5.44290      452.30000      438.70530      459.90700      252.49510      445.84780       32.02760       75.62930       80.56530       80.25880        0.24140        4.29160     2480.86450       43.73970     4361.00000        1.73750
     3388.15680      311.10000      303.70900        0.98230        0.98560        0.97040        0.88500        5.44290      452.30000      438.70530      459.90700      252.49510      445.84780       32.02760       75.62930       80.56530       80.25880        0.24140        4.29160     2480.86450       43.73970     4250.00000        1.73750
